City_ID,City,Country,Lat,Lng,Max Temp,Humidity,Cloudiness,Wind Speed,Decription
0,Kapaa,US,22.0752,-159.319,80.58,88,100,20.71,light rain
1,Tiksi,RU,71.6872,128.8694,-18.71,95,100,12.08,overcast clouds
2,Riviere-Au-Renard,CA,48.9957,-64.3971,12.49,72,92,12.57,overcast clouds
3,Mogadishu,SO,2.0371,45.3438,77.99,80,50,17.31,scattered clouds
4,Georgetown,MY,5.4112,100.3354,80.53,82,20,4.61,few clouds
5,Tual,ID,-5.6667,132.75,77.67,87,100,4.47,overcast clouds
6,Butaritari,KI,3.0707,172.7902,80.83,73,100,11.03,overcast clouds
7,Busselton,AU,-33.65,115.3333,69.67,38,0,11.52,clear sky
8,Brownsville,US,25.9018,-97.4975,74.08,89,75,5.75,broken clouds
9,Jamestown,US,42.097,-79.2353,34.02,72,100,6.91,mist
10,Maracacume,BR,-2.0428,-45.9592,73.58,95,31,3.6,scattered clouds
11,East London,ZA,-33.0153,27.9116,71.91,85,100,21.79,overcast clouds
12,Luderitz,NA,-26.6481,15.1594,62.01,94,15,2.73,few clouds
13,Talcahuano,CL,-36.7167,-73.1167,62.28,59,0,19.57,clear sky
14,Lebu,CL,-37.6167,-73.65,57.78,82,0,15.79,clear sky
15,Kota Kinabalu,MY,5.9749,116.0724,84.18,70,20,3.44,few clouds
16,Samarai,PG,-10.6167,150.6667,84.67,72,65,7.99,broken clouds
17,Bandarbeyla,SO,9.4942,50.8122,74.8,72,1,16.73,clear sky
18,Mataura,NZ,-46.1927,168.8643,63.48,42,62,4.34,broken clouds
19,Hilo,US,19.7297,-155.09,80.33,64,100,5.75,overcast clouds
20,Punta Arenas,CL,-53.15,-70.9167,51.91,62,75,8.05,light intensity shower rain
21,Paita,PE,-5.0892,-81.1144,68.7,84,100,8.86,overcast clouds
22,Lagoa,PT,39.05,-27.9833,62.42,83,0,37.45,clear sky
23,New Norfolk,AU,-42.7826,147.0587,62.92,72,100,1.01,overcast clouds
24,Rikitea,PF,-23.1203,-134.9692,76.39,80,6,18.1,light rain
25,Scarborough,GB,54.2797,-0.4044,27.97,92,16,3.0,few clouds
26,Bluff,NZ,-46.6,168.3333,63.81,79,29,15.55,scattered clouds
27,Cape Town,ZA,-33.9258,18.4232,75.11,84,40,8.99,scattered clouds
28,San Patricio,US,28.017,-97.5169,73.49,77,98,6.73,overcast clouds
29,Fairbanks,US,64.8378,-147.7164,15.22,83,20,0.0,few clouds
30,Pangnirtung,CA,66.1451,-65.7125,11.39,95,97,2.98,overcast clouds
31,Wad Madani,SD,14.4012,33.5199,71.96,28,0,10.54,clear sky
32,Ponta Delgada,PT,37.7333,-25.6667,66.92,88,75,21.85,moderate rain
33,Saint-Philippe,RE,-21.3585,55.7679,72.99,83,49,11.03,scattered clouds
34,Avarua,CK,-21.2078,-159.775,78.85,65,75,9.22,broken clouds
35,Necochea,AR,-38.5473,-58.7368,58.68,88,0,8.03,clear sky
36,Albany,US,42.6001,-73.9662,30.16,91,100,3.74,snow
37,Puerto Carreno,CO,6.189,-67.4859,76.37,83,22,4.54,few clouds
38,Bengkulu,ID,-3.8004,102.2655,80.38,71,100,7.25,overcast clouds
39,Ushuaia,AR,-54.8,-68.3,44.26,81,75,11.5,broken clouds
40,Coyah,GN,9.75,-13.4167,79.75,94,84,2.84,broken clouds
41,Veraval,IN,20.9,70.3667,69.8,43,0,10.49,clear sky
42,Chokurdakh,RU,70.6333,147.9167,-23.46,99,100,7.2,overcast clouds
43,Meadow Lake,US,34.8014,-106.5436,50.11,43,0,10.8,clear sky
44,Yenagoa,NG,4.9247,6.2642,76.75,91,16,3.36,few clouds
45,Tuktoyaktuk,CA,69.4541,-133.0374,-18.4,69,0,11.5,clear sky
46,Arraial Do Cabo,BR,-22.9661,-42.0278,74.7,93,43,5.91,scattered clouds
47,Pierre,US,44.3683,-100.351,36.52,71,0,14.0,clear sky
48,Vila Velha,BR,-20.3297,-40.2925,80.55,90,0,4.61,clear sky
49,Batagay,RU,67.6333,134.6333,-27.18,96,100,3.33,overcast clouds
50,Juliaca,PE,-15.5,-70.1333,48.09,70,100,4.03,light rain
51,Hobart,AU,-42.8794,147.3294,63.27,83,75,6.91,broken clouds
52,Keti Bandar,PK,24.1447,67.4497,67.59,42,0,14.47,clear sky
53,Hamilton,US,39.1834,-84.5333,42.94,76,100,5.75,overcast clouds
54,Chiredzi,ZW,-21.05,31.6667,71.08,84,34,6.8,scattered clouds
55,Cidreira,BR,-30.1811,-50.2056,72.86,92,3,15.19,clear sky
56,Victoria,HK,22.2855,114.1577,63.25,74,100,15.01,overcast clouds
57,Oxapampa,PE,-10.5775,-75.4017,57.88,98,100,3.49,overcast clouds
58,Rio Grande,BR,-32.035,-52.0986,74.08,84,5,21.74,clear sky
59,Muros,ES,42.7762,-9.0603,54.09,86,100,10.6,overcast clouds
60,Sioux Lookout,CA,50.1001,-91.917,21.27,93,100,5.75,overcast clouds
61,Faya,SA,18.3851,42.4509,50.52,71,0,2.19,clear sky
62,Kloulklubed,PW,7.0419,134.2556,83.75,73,100,7.58,overcast clouds
63,Barrow,US,71.2906,-156.7887,5.02,85,75,21.85,broken clouds
64,Tarata,BO,-17.6167,-66.0167,60.22,66,100,4.68,overcast clouds
65,Muli,MV,2.9167,73.5667,81.0,78,100,14.43,overcast clouds
66,Hasaki,JP,35.7333,140.8333,52.29,53,8,19.28,clear sky
67,Comodoro Rivadavia,AR,-45.8667,-67.5,60.66,59,100,10.36,light intensity shower rain
68,Zalantun,CN,48.0,122.7167,12.0,86,100,2.77,overcast clouds
69,Nanortalik,GL,60.1432,-45.2371,21.34,80,5,5.41,clear sky
70,Biltine,TD,14.5333,20.9167,67.55,18,0,10.54,clear sky
71,Upernavik,GL,72.7868,-56.1549,4.39,95,54,16.89,broken clouds
72,Mar Del Plata,AR,-38.0023,-57.5575,64.09,78,40,13.8,scattered clouds
73,Clonakilty,IE,51.6231,-8.8706,27.61,80,5,2.15,clear sky
74,Cherskiy,RU,68.75,161.3,-29.29,95,100,5.01,overcast clouds
75,Soyo,AO,-6.1349,12.3689,75.78,90,100,5.19,overcast clouds
76,Geraldton,AU,-28.7667,114.6,90.01,15,0,20.71,clear sky
77,Dikson,RU,73.5069,80.5464,19.22,94,100,17.29,light snow
78,University Place,US,47.2356,-122.5504,45.37,92,100,5.75,overcast clouds
79,Buchanan,LR,5.8808,-10.0467,77.81,86,12,3.87,few clouds
80,Sinnamary,GF,5.3833,-52.95,76.71,86,99,6.29,overcast clouds
81,Ribeira Grande,PT,38.5167,-28.7,64.78,87,19,23.0,few clouds
82,Hofn,IS,64.2539,-15.2082,32.56,67,10,18.43,clear sky
83,Carnarvon,AU,-24.8667,113.6333,75.52,63,0,15.68,clear sky
84,Moose Factory,CA,51.2585,-80.6094,-5.82,84,0,2.3,clear sky
85,Inongo,CD,-1.95,18.2667,70.18,96,96,2.04,light rain
86,Saint-Pierre,RE,-21.3393,55.4781,74.91,73,14,3.44,few clouds
87,Tahoua,NE,14.8888,5.2692,67.23,17,100,12.73,overcast clouds
88,Andenes,NO,69.3143,16.1194,24.93,73,5,8.05,clear sky
89,Hithadhoo,MV,-0.6,73.0833,80.89,77,100,12.01,overcast clouds
90,Saint Anthony,US,45.0205,-93.218,33.42,79,75,6.91,broken clouds
91,Mango,US,27.9797,-82.3065,67.08,90,40,1.01,scattered clouds
92,Bom Jesus,BR,-9.0744,-44.3586,75.38,75,49,2.55,scattered clouds
93,Hermanus,ZA,-34.4187,19.2345,70.81,92,100,17.38,light rain
94,Voyinka,UA,45.8699,33.9914,55.9,85,100,9.4,overcast clouds
95,Manono,CD,-7.3,27.4167,67.5,98,95,2.19,moderate rain
96,Nishihara,JP,26.1842,127.7558,69.46,71,75,14.97,broken clouds
97,Lethem,GY,3.3803,-59.7968,76.24,86,100,7.94,overcast clouds
98,Batagay-Alyta,RU,67.8006,130.4114,-24.86,88,100,4.36,overcast clouds
99,Kawambwa,ZM,-9.7915,29.0791,61.07,97,93,2.77,light rain
100,Biak,ID,-0.9131,122.8766,83.37,66,100,0.67,overcast clouds
101,Naze,JP,28.3667,129.4833,63.52,60,39,12.57,scattered clouds
102,Tolaga Bay,NZ,-38.3667,178.3,67.03,82,100,7.36,light rain
103,Qaanaaq,GL,77.484,-69.3632,-12.24,65,0,10.76,clear sky
104,Mareeba,AU,-17.0,145.4333,90.45,58,87,5.03,overcast clouds
105,Kralendijk,BQ,12.15,-68.2667,78.78,73,40,9.22,scattered clouds
106,Linfen,CN,36.0889,111.5189,35.42,15,0,7.61,clear sky
107,Severo-Kurilsk,RU,50.6789,156.125,25.32,61,97,23.73,light snow
108,Clyde River,CA,70.4692,-68.5914,-5.57,77,75,6.91,broken clouds
109,Beloha,MG,-25.1667,45.05,74.66,77,87,9.69,overcast clouds
110,Santa Maria,BR,-29.6842,-53.8069,74.5,64,0,1.14,clear sky
111,Port Alfred,ZA,-33.5906,26.891,67.17,98,95,4.0,overcast clouds
112,Roma,US,43.2128,-75.4557,34.09,94,100,9.22,mist
113,Alice Springs,AU,-23.7,133.8833,74.75,38,9,12.66,clear sky
114,San Cristobal,VE,7.7669,-72.225,68.18,96,59,1.19,broken clouds
115,Bathsheba,BB,13.2167,-59.5167,75.06,84,20,6.91,few clouds
116,Pevek,RU,69.7008,170.3133,-16.49,98,100,17.22,light snow
117,Baykit,RU,61.67,96.37,-15.72,97,100,3.98,overcast clouds
118,Saint-Paul,RE,-21.0096,55.2707,75.36,79,46,1.92,scattered clouds
119,Baker City,US,44.7749,-117.8344,34.59,99,100,3.44,overcast clouds
120,Pangody,RU,65.85,74.4859,-20.65,99,52,7.85,broken clouds
121,Ugoofaaru,MV,5.6667,73.0,80.47,79,100,13.38,overcast clouds
122,Olafsvik,IS,64.8945,-23.7142,35.51,67,5,2.91,clear sky
123,Paris,FR,48.8534,2.3488,30.07,93,100,6.91,mist
124,Castro,BR,-24.7911,-50.0119,65.61,95,92,2.55,overcast clouds
125,Atuona,PF,-9.8,-139.0333,78.42,77,17,18.68,few clouds
126,Cap Malheureux,MU,-19.9842,57.6142,76.46,69,0,7.0,clear sky
127,Slave Lake,CA,55.2834,-114.769,-2.22,71,100,21.85,light snow
128,Thompson,CA,55.7435,-97.8558,28.56,93,100,3.44,overcast clouds
129,Port Elizabeth,ZA,-33.918,25.5701,73.09,93,20,18.41,few clouds
130,Rawson,AR,-43.3002,-65.1023,58.57,66,100,9.6,overcast clouds
131,Chuy,UY,-33.6971,-53.4616,73.38,74,98,5.68,overcast clouds
132,Provideniya,RU,64.3833,-173.3,15.91,79,100,20.13,overcast clouds
133,Puerto Ayora,EC,-0.7393,-90.3518,69.55,94,79,1.99,broken clouds
134,Volga,RU,57.9516,38.3879,25.0,95,100,15.32,snow
135,Verkhnyaya Inta,RU,65.9811,60.3094,-21.86,98,96,3.98,overcast clouds
136,Yellowknife,CA,62.456,-114.3525,-8.88,84,100,3.44,light snow
137,Bandiagara,ML,14.3501,-3.6104,69.98,13,0,8.97,clear sky
138,San Vicente,AR,-26.6167,-54.1333,65.35,94,100,1.7,overcast clouds
139,Klyuchi,RU,52.2667,79.1667,6.35,98,91,4.12,overcast clouds
140,Tuku,TW,23.6778,120.3926,69.3,64,79,13.87,broken clouds
141,North Bend,US,43.4065,-124.2243,44.51,92,40,0.0,scattered clouds
142,Christchurch,NZ,-43.5333,172.6333,70.48,61,20,12.66,few clouds
143,Vestmannaeyjar,IS,63.4427,-20.2734,34.45,59,5,8.63,clear sky
144,Troitsko-Pechorsk,RU,62.7084,56.1964,-11.34,100,82,2.06,broken clouds
145,Souillac,MU,-20.5167,57.5167,75.58,78,20,8.05,few clouds
146,Henties Bay,NA,-22.116,14.2845,58.86,98,25,3.0,scattered clouds
147,Auki,SB,-8.7676,160.7034,83.68,73,47,2.28,scattered clouds
148,Alofi,NU,-19.0595,-169.9187,82.29,61,82,17.27,broken clouds
149,Bilma,NE,18.6853,12.9164,66.06,17,12,5.55,few clouds
150,Sabha,LY,27.0377,14.4283,61.88,47,0,7.18,clear sky
151,Poya,NC,-21.35,165.15,83.57,67,34,10.69,scattered clouds
152,Umm Kaddadah,SD,13.6017,26.6876,60.31,23,0,12.68,clear sky
153,Saint-Raphael,HT,19.4333,-72.2,66.51,90,50,3.44,scattered clouds
154,Siteki,SZ,-26.45,31.95,77.0,94,100,9.22,light rain
155,Bredasdorp,ZA,-34.5322,20.0403,68.38,97,100,14.2,light rain
156,Brigantine,US,39.4101,-74.3646,44.8,95,100,8.05,overcast clouds
157,Mustafabad,PK,30.8922,73.4989,55.45,40,0,4.0,clear sky
158,Norman Wells,CA,65.282,-126.8329,-25.56,68,0,2.3,clear sky
159,Vaini,TO,-21.2,-175.2,78.96,94,75,14.97,light intensity drizzle
160,Nakhon Phanom,TH,17.3333,104.4167,69.6,65,100,11.03,overcast clouds
161,San Fernando,PH,15.0286,120.6898,83.93,70,100,1.95,overcast clouds
162,Jumla,NP,29.2747,82.1838,42.06,15,0,5.06,clear sky
163,Juazeiro Do Norte,BR,-7.2131,-39.3153,80.56,65,0,0.0,clear sky
164,Sao Joao Da Barra,BR,-21.6403,-41.0511,74.97,92,5,4.99,clear sky
165,Dudinka,RU,69.4058,86.1778,-8.95,97,100,17.07,light snow
166,Progreso,MX,21.2833,-89.6667,78.12,73,14,14.14,light rain
167,Canton,CN,23.1167,113.25,58.95,51,87,14.38,overcast clouds
168,Talnakh,RU,69.4865,88.3972,-17.28,98,100,11.59,light snow
169,Rundu,NA,-17.9333,19.7667,68.07,83,100,4.21,light rain
170,Marataizes,BR,-21.0433,-40.8244,74.44,92,1,5.17,clear sky
171,Salalah,OM,17.0151,54.0924,68.9,45,0,11.41,clear sky
172,Queanbeyan,AU,-35.35,149.2333,62.19,78,75,19.57,broken clouds
173,Westport,US,41.1415,-73.3579,38.32,87,100,12.66,snow
174,Ipixuna,BR,-1.7625,-48.8043,75.83,89,53,4.21,broken clouds
175,Kalamb,IN,19.05,73.95,71.42,77,96,3.83,overcast clouds
176,Bara,NG,10.3744,10.7288,66.67,26,2,6.85,clear sky
177,Wanning,CN,18.8003,110.3967,67.12,68,49,15.23,scattered clouds
178,Fereydun Kenar,IR,36.6864,52.5225,44.82,93,0,0.0,clear sky
179,Craig,US,40.5153,-107.5464,29.82,81,100,5.23,overcast clouds
180,Pochutla,MX,15.7432,-96.4661,77.83,81,2,3.49,clear sky
181,Tasiilaq,GL,65.6145,-37.6368,16.23,52,0,4.07,clear sky
182,Winona,US,43.9666,-91.7668,30.4,86,100,0.0,overcast clouds
183,Ponta Do Sol,PT,32.6667,-17.1,73.0,92,57,11.03,broken clouds
184,Klaksvik,FO,62.2266,-6.589,32.92,57,100,29.82,light snow
185,Bjornevatn,NO,69.6672,29.9847,13.62,84,100,6.91,overcast clouds
186,Ilulissat,GL,69.2167,-51.1,-1.66,70,18,6.2,few clouds
187,Santa Clara,CU,22.4,-79.9667,64.81,90,4,4.18,clear sky
188,Vardo,NO,70.3705,31.1107,21.18,68,100,12.66,overcast clouds
189,Kangaba,ML,11.9333,-8.4167,69.67,18,95,5.55,overcast clouds
190,La Ronge,CA,55.1001,-105.2842,12.45,92,40,2.3,scattered clouds
191,Mahebourg,MU,-20.4081,57.7,76.24,78,20,8.05,few clouds
192,Gravdal,NO,68.1214,13.5031,28.98,60,2,6.02,clear sky
193,Chornyanka,UA,46.6522,33.359,56.37,81,100,14.88,overcast clouds
194,Totness,SR,5.8833,-56.3167,76.23,90,91,9.31,overcast clouds
195,Katsuura,JP,35.1333,140.3,52.29,52,2,19.77,clear sky
196,Tomball,US,30.0972,-95.6161,66.81,90,100,3.44,overcast clouds
197,Tuatapere,NZ,-46.1333,167.6833,65.1,68,71,5.93,broken clouds
198,Tilichiki,RU,60.4667,166.1,-6.39,95,91,6.87,overcast clouds
199,Lakes Entrance,AU,-37.8811,147.981,57.16,87,97,16.04,light rain
200,Elizabeth City,US,36.2946,-76.2511,52.02,89,75,5.75,broken clouds
201,Quatre Cocos,MU,-20.2078,57.7625,76.08,73,1,13.51,clear sky
202,Karratha,AU,-20.7377,116.8463,98.8,20,51,3.09,broken clouds
203,Dongsheng,CN,39.8161,109.9776,11.44,32,0,22.35,clear sky
204,Basco,PH,20.4487,121.9702,77.74,76,91,26.24,overcast clouds
205,Kaitangata,NZ,-46.2817,169.8464,62.47,71,54,10.83,broken clouds
206,Casper,US,42.8666,-106.3131,37.38,41,100,9.55,overcast clouds
207,Okhotsk,RU,59.3833,143.3,-22.81,83,12,13.8,few clouds
208,Walvis Bay,NA,-22.9575,14.5053,61.09,94,1,3.44,clear sky
209,Khorramshahr,IR,30.4397,48.1664,53.56,76,0,0.0,clear sky
210,Coquimbo,CL,-29.9533,-71.3436,64.13,82,0,5.75,clear sky
211,Tura,IN,25.5198,90.2201,63.1,70,5,1.88,clear sky
212,Nyaunglebin,MM,17.95,96.7333,75.94,72,18,3.15,few clouds
213,Yulara,AU,-25.2406,130.9889,82.18,27,0,10.49,clear sky
214,Saskylakh,RU,71.9167,114.0833,-2.34,94,100,12.41,overcast clouds
215,Camiri,BO,-20.05,-63.5167,71.55,81,100,2.64,overcast clouds
216,Balad,IQ,34.0164,44.1453,53.62,48,100,0.58,overcast clouds
217,Oistins,BB,13.0667,-59.5333,74.52,83,20,6.91,few clouds
218,Kavieng,PG,-2.5744,150.7967,84.61,70,100,8.48,overcast clouds
219,Ostrovnoy,RU,68.0531,39.5131,19.81,94,100,11.39,snow
220,Te Anau,NZ,-45.4167,167.7167,69.84,51,55,5.19,broken clouds
221,Svetlaya,RU,46.5389,138.3297,18.91,49,10,4.09,clear sky
222,Ikirun,NG,7.9167,4.6667,67.57,86,56,3.31,broken clouds
223,Bambous Virieux,MU,-20.3428,57.7575,76.21,78,20,8.05,few clouds
224,Narsaq,GL,60.9167,-46.05,13.03,63,15,8.81,few clouds
225,Byron Bay,AU,-28.65,153.6167,87.94,64,85,20.36,overcast clouds
226,Lyambir,RU,54.2817,45.1249,28.09,84,100,21.0,overcast clouds
227,Quevedo,EC,-1.0333,-79.45,80.4,63,97,3.18,overcast clouds
228,Nokaneng,BW,-19.6667,22.2667,73.13,73,99,7.14,overcast clouds
229,Dano,BF,11.15,-3.0667,71.85,16,54,5.93,broken clouds
230,Gorontalo,ID,0.5412,123.0595,87.85,61,98,1.9,overcast clouds
231,Lompoc,US,34.6391,-120.4579,49.89,85,0,5.75,clear sky
232,Nipawin,CA,53.3668,-104.0009,19.44,79,75,11.5,broken clouds
233,Gazli,UZ,40.1333,63.45,26.64,42,93,8.14,overcast clouds
234,Aktau,KZ,43.65,51.2,16.38,49,0,17.43,clear sky
235,Saint George,US,37.1041,-113.5841,48.79,86,100,10.36,overcast clouds
236,Salta,AR,-24.7859,-65.4117,81.19,71,0,10.36,clear sky
237,Andros Town,BS,24.7,-77.7667,69.76,72,3,3.69,clear sky
238,Eureka,US,40.8021,-124.1637,44.92,90,44,5.01,scattered clouds
239,Bijawar,IN,24.6333,79.5,60.44,48,3,1.05,clear sky
240,Borogontsy,RU,62.6683,131.1683,-42.21,99,100,4.0,overcast clouds
241,Seoul,KR,37.5683,126.9778,36.97,54,0,3.44,clear sky
242,Touros,BR,-5.1989,-35.4608,78.53,78,3,11.92,clear sky
243,Piacabucu,BR,-10.4056,-36.4344,77.02,86,72,9.95,broken clouds
244,Fortuna,US,40.5982,-124.1573,44.65,94,40,3.44,scattered clouds
245,Kodiak,US,57.79,-152.4072,38.21,98,100,3.76,light rain
246,Roald,NO,62.5833,6.1333,24.94,58,0,12.66,clear sky
247,Nantucket,US,41.2835,-70.0995,40.14,79,100,15.86,moderate rain
248,Lujiang,CN,31.2581,117.2817,40.8,56,88,6.91,overcast clouds
249,Hesla,IN,24.0667,85.8833,61.52,45,2,4.0,clear sky
250,Puerres,CO,1.1937,-77.2666,47.5,96,100,5.06,light rain
251,Toccoa,US,34.5773,-83.3324,51.44,98,100,3.44,overcast clouds
252,Half Moon Bay,US,37.4636,-122.4286,48.78,91,100,12.66,overcast clouds
253,Rupert,US,42.6191,-113.6772,33.75,93,100,6.91,mist
254,Shubarkuduk,KZ,49.1447,56.4872,7.86,82,1,6.55,clear sky
255,Faanui,PF,-16.4833,-151.75,74.08,88,100,9.17,moderate rain
256,Weiser,US,44.251,-116.9693,36.86,95,100,1.99,light rain
257,Gallup,US,35.5281,-108.7426,44.02,28,3,1.99,clear sky
258,Codrington,AU,-38.2667,141.9667,58.77,71,79,26.89,broken clouds
259,Calama,CL,-22.4667,-68.9333,59.49,47,75,17.27,broken clouds
260,Yaan,NG,7.3833,8.5667,74.25,25,25,5.48,scattered clouds
261,Benjamin Constant,BR,-4.3831,-70.0311,77.13,98,84,2.98,broken clouds
262,Maple Creek,CA,49.9168,-109.4848,16.21,86,100,5.75,snow
263,Aksarayskiy,RU,46.7924,48.0119,22.66,74,0,15.7,clear sky
264,Belmonte,BR,-15.8631,-38.8828,76.71,93,48,11.65,scattered clouds
265,Orchard Homes,US,46.8633,-114.0484,33.94,91,100,0.0,mist
266,Lhokseumawe,ID,5.1801,97.1507,74.07,92,100,5.39,overcast clouds
267,Novyy Urengoy,RU,66.0833,76.6333,-18.9,98,100,7.36,overcast clouds
268,Mizdah,LY,31.4451,12.9801,56.43,51,74,12.39,broken clouds
269,Gondanglegi,ID,-7.7479,112.0132,84.29,69,29,7.54,scattered clouds
270,Cayenne,GF,4.9333,-52.3333,73.44,100,0,0.0,clear sky
271,Bayir,TR,37.2687,28.2167,52.32,94,100,5.88,light rain
272,Santa Fe,AR,-31.6333,-60.7,89.02,66,4,1.01,clear sky
273,Tromso,NO,69.6496,18.957,21.22,73,9,10.36,clear sky
274,Banjar,ID,-8.19,114.9675,86.4,65,45,2.51,scattered clouds
275,Inirida,CO,3.8653,-67.9239,72.41,95,96,2.46,overcast clouds
276,Sulina,RO,45.1559,29.6536,49.37,80,100,9.24,overcast clouds
277,Manavgat,TR,36.7867,31.4431,60.06,91,100,19.3,moderate rain
278,Kendari,ID,-3.945,122.4989,85.93,66,100,1.86,overcast clouds
279,Qaqortoq,GL,60.7167,-46.0333,14.45,68,4,7.96,clear sky
280,Sohag,EG,26.557,31.6948,55.69,35,90,1.25,overcast clouds
281,Santiago De Las Vegas,CU,22.97,-82.3869,67.71,82,0,1.99,clear sky
282,Saldanha,ZA,-33.0117,17.9442,71.65,87,29,5.06,scattered clouds
283,Port Pirie,AU,-33.1833,138.0167,65.55,44,21,19.84,few clouds
284,Nakusp,CA,50.2499,-117.8023,34.47,100,97,1.14,overcast clouds
285,Horasan,TR,40.0458,42.1728,32.79,62,100,0.34,overcast clouds
286,Fornosovo,RU,59.5689,30.5544,20.86,90,100,14.79,light snow
287,Nevsehir,TR,38.9167,34.6667,43.81,76,75,5.75,broken clouds
288,Hwange,ZW,-18.3693,26.5019,69.93,85,74,3.09,broken clouds
289,Port Macquarie,AU,-31.4333,152.9167,77.9,88,100,5.26,light rain
290,Curaca,BR,-8.9903,-39.9094,81.45,53,16,14.41,light rain
291,Acarau,BR,-2.8856,-40.12,79.61,79,59,13.91,broken clouds
292,Gat,IL,31.61,34.7642,59.4,51,95,3.76,overcast clouds
293,Hovd,MN,48.0056,91.6419,-0.72,68,84,4.79,broken clouds
294,Mangrol,IN,21.1167,70.1167,68.41,45,1,11.7,clear sky
295,Leningradskiy,RU,69.3833,178.4167,-0.04,96,100,15.88,light snow
296,Yar-Sale,RU,66.8333,70.8333,-19.8,99,54,8.48,broken clouds
297,Orange,US,33.7,-117.7675,55.53,76,64,1.01,broken clouds
298,Kostrzyn,PL,52.3985,17.2281,30.97,81,100,8.99,overcast clouds
299,Anadyr,RU,64.75,177.4833,-3.5,76,20,20.13,few clouds
300,Dingle,PH,10.9995,122.6711,82.62,79,78,1.07,broken clouds
301,Yele,CM,10.7323,13.5891,64.38,23,0,3.85,clear sky
302,Chatham,GB,51.3789,0.5279,33.8,79,100,1.01,light snow
303,Sitka,US,57.0531,-135.33,29.14,78,100,4.68,overcast clouds
304,Lucapa,AO,-8.4192,20.7447,64.92,99,100,2.24,moderate rain
305,Kuusamo,FI,65.9667,29.1833,8.64,85,100,2.3,overcast clouds
306,Los Aquijes,PE,-14.0967,-75.6908,69.93,68,100,3.15,overcast clouds
307,Presidente Franco,PY,-25.5333,-54.6167,77.52,94,40,2.3,scattered clouds
308,Reconquista,AR,-29.15,-59.65,83.05,57,4,7.85,clear sky
309,Hazorasp,UZ,41.3194,61.0742,10.24,41,0,8.41,clear sky
310,Solvychegodsk,RU,61.3305,46.9156,5.49,90,100,4.07,overcast clouds
311,Mato Verde,BR,-15.3972,-42.8664,71.85,79,23,4.27,few clouds
312,Coihaique,CL,-45.5752,-72.0662,51.75,58,0,4.61,light rain
313,Khatanga,RU,71.9667,102.5,-0.29,94,100,15.39,overcast clouds
314,Damara,CF,4.9608,18.7035,72.36,34,5,3.83,clear sky
315,Belyy Yar,RU,53.6039,91.3903,-9.51,92,66,4.47,mist
316,Paamiut,GL,61.994,-49.6678,19.31,63,0,8.37,clear sky
317,Sarahan,IN,31.5167,77.8,40.19,21,36,9.28,scattered clouds
318,Kruisfontein,ZA,-34.0033,24.7314,70.88,93,95,11.39,overcast clouds
319,Maposeni,TZ,-10.5833,35.4,63.37,97,97,2.04,overcast clouds
320,Nouakchott,MR,18.0858,-15.9785,77.29,32,1,9.48,clear sky
321,Olinda,BR,-8.0089,-34.8553,80.33,74,40,4.61,scattered clouds
322,Cananea,MX,30.95,-110.3,45.84,32,83,7.85,broken clouds
323,Pokhara,NP,28.2333,83.9833,59.2,23,4,4.18,clear sky
324,Bodo,NO,67.28,14.405,22.95,70,0,16.11,clear sky
325,Kankan,GN,10.3854,-9.3057,71.1,20,98,3.58,overcast clouds
326,Kysyl-Syr,RU,63.8986,122.7617,-31.95,96,100,7.83,overcast clouds
327,Laguna,US,38.421,-121.4238,50.05,77,100,8.05,light rain
328,Harper,LR,4.375,-7.7169,77.59,86,30,6.53,light rain
329,Dalbandin,PK,28.8947,64.4101,49.59,70,87,9.06,overcast clouds
330,Ossora,RU,59.2353,163.0719,8.1,81,100,3.13,overcast clouds
331,Merauke,ID,-8.4667,140.3333,84.61,69,100,2.91,moderate rain
332,Husavik,IS,66.0449,-17.3389,21.45,86,30,13.76,scattered clouds
333,Awjilah,LY,29.1081,21.2869,59.25,87,6,3.69,clear sky
334,Shuyskoye,RU,59.3736,41.0305,16.2,91,100,13.15,snow
335,Fort Nelson,CA,58.8053,-122.7002,-8.05,88,0,4.61,clear sky
336,Balakhta,RU,55.38,91.6,-19.71,100,36,1.97,scattered clouds
337,Sur,OM,22.5667,59.5289,73.63,59,0,10.47,clear sky
338,Hay River,CA,60.8156,-115.7999,-0.42,71,75,3.44,light snow
339,Shwebo,MM,22.5667,95.7,68.13,57,6,3.49,clear sky
340,Phuthaditjhaba,ZA,-28.5242,28.8158,57.13,98,100,4.45,light rain
341,Ziparion,GR,36.875,27.2042,63.52,82,40,10.36,scattered clouds
342,Beringovskiy,RU,63.05,179.3167,3.88,69,0,11.95,clear sky
343,Hambantota,LK,6.1241,81.1185,68.34,100,20,1.14,few clouds
344,Yarada,IN,17.65,83.2667,73.72,100,75,2.3,mist
345,Nalut,LY,30.3333,10.85,57.85,48,15,9.57,few clouds
346,Genhe,CN,50.7833,121.5167,6.03,91,100,2.06,overcast clouds
347,Tocopilla,CL,-22.092,-70.1979,69.33,67,98,3.89,overcast clouds
348,Jalu,LY,29.0331,21.5482,59.65,84,7,4.43,clear sky
349,Torbay,CA,47.6666,-52.7314,30.76,94,75,9.22,broken clouds
350,Ko Samui,TH,9.5357,99.9357,80.51,94,40,0.0,scattered clouds
351,La Romana,DO,18.4273,-68.9728,73.76,88,40,0.0,scattered clouds
352,Marsh Harbour,BS,26.5412,-77.0636,75.36,72,3,5.23,clear sky
353,Portland,US,45.5234,-122.6762,44.89,94,100,4.0,overcast clouds
354,Alghero,IT,40.5589,8.3181,46.49,93,75,1.14,broken clouds
355,Semey,KZ,50.4111,80.2275,12.42,92,40,6.71,scattered clouds
356,Vostok,RU,46.4856,135.8833,8.69,72,100,3.27,overcast clouds
357,Saint-Georges,GD,12.0564,-61.7485,74.88,78,20,0.0,few clouds
358,Nagapattinam,IN,10.7667,79.8333,76.53,86,79,1.39,broken clouds
359,Bilibino,RU,68.0546,166.4372,-23.15,99,100,4.88,light snow
360,Deputatskiy,RU,69.3,139.9,-28.88,94,100,6.8,overcast clouds
361,Lasa,IT,46.6166,10.7002,16.36,55,0,4.74,clear sky
362,Bukama,CD,-9.2,25.85,68.0,98,100,2.01,light rain
363,Campbell River,CA,50.0163,-125.2446,38.73,100,75,3.44,broken clouds
364,Maku,IR,39.2911,44.4521,30.81,86,100,0.0,overcast clouds
365,Mardin,TR,37.3131,40.7436,44.11,59,100,3.62,overcast clouds
366,Grajau,BR,-5.8194,-46.1386,73.0,93,13,2.33,few clouds
367,Tautira,PF,-17.7333,-149.15,77.05,78,100,10.8,moderate rain
368,Tanggu,CN,39.0211,117.6469,35.56,22,0,15.57,clear sky
369,Sychevka,RU,55.8252,34.2736,36.59,100,100,14.2,overcast clouds
370,Chifeng,CN,42.2683,118.9636,22.44,34,2,20.15,clear sky
371,Ancud,CL,-41.8697,-73.8203,52.32,84,100,7.7,light rain
372,Atar,MR,20.5169,-13.0499,75.16,16,0,6.8,clear sky
373,Beni,CD,0.5,29.4667,60.51,99,98,1.61,light rain
374,Aranos,NA,-24.1333,19.1167,65.23,31,0,9.73,clear sky
375,Palana,RU,59.1167,159.9667,13.21,63,100,7.43,overcast clouds
376,Los Llanos De Aridane,ES,28.6585,-17.9182,67.12,76,0,10.0,clear sky
377,Vangaindrano,MG,-23.35,47.6,71.76,92,19,2.73,few clouds
378,Sambava,MG,-14.2667,50.1667,73.76,87,10,7.85,light rain
379,Asau,RO,46.4333,26.4,29.32,93,100,1.86,overcast clouds
380,San Andres,CO,12.5847,-81.7006,78.82,83,20,6.91,few clouds
381,Rypefjord,NO,70.6333,23.6667,21.67,73,31,5.75,scattered clouds
382,Cockburn Town,TC,21.4612,-71.1419,76.96,64,97,13.04,overcast clouds
383,Eenhana,NA,-17.4667,16.3333,66.4,25,100,6.4,overcast clouds
384,Broome,US,42.2506,-75.833,34.7,84,100,5.75,fog
385,Zheleznodorozhnyy,RU,55.7503,38.0042,37.92,98,100,16.22,snow
386,Saint-Francois,FR,46.4154,3.9054,22.68,93,25,1.14,scattered clouds
387,Viamao,BR,-30.0811,-51.0233,75.67,89,0,8.05,clear sky
388,Vilyuysk,RU,63.7553,121.6247,-34.35,94,100,8.25,overcast clouds
389,Yvetot,FR,49.6174,0.7581,33.13,90,100,8.77,overcast clouds
390,Zykovo,RU,55.9519,93.1461,-24.86,97,22,2.48,few clouds
391,Mushie,CD,-3.0167,16.9,71.28,94,98,1.86,overcast clouds
392,Kawalu,ID,-7.3817,108.2082,80.4,71,47,4.85,scattered clouds
393,Ongandjera,NA,-17.8833,15.0667,66.87,35,98,7.14,overcast clouds
394,Le Port,RE,-20.9373,55.2919,75.25,72,44,7.29,scattered clouds
395,Malinovoye Ozero,RU,51.6753,79.7825,8.53,97,100,4.65,overcast clouds
396,Plover,US,44.4564,-89.544,32.99,84,100,1.99,overcast clouds
397,Along,IN,28.1667,94.7667,58.66,62,0,1.01,clear sky
398,Kamenka,RU,51.3223,42.7678,28.26,82,100,20.94,overcast clouds
399,Longyearbyen,SJ,78.2186,15.6401,10.24,56,75,13.8,broken clouds
400,Yuli,NG,9.6989,10.2744,69.64,25,0,5.97,clear sky
401,Gerash,IR,27.6652,54.1371,37.54,45,0,1.68,clear sky
402,Okakarara,NA,-20.5833,17.4333,59.74,34,100,6.73,overcast clouds
403,Neftcala,AZ,39.3742,49.2472,47.44,81,100,6.73,light rain
404,Sonoita,MX,31.85,-112.8333,58.14,43,2,12.59,clear sky
405,Kahului,US,20.8947,-156.47,78.96,77,100,10.0,overcast clouds
406,Cabo San Lucas,MX,22.8909,-109.9124,74.52,62,2,1.99,clear sky
407,Palmer,US,42.1584,-72.3287,27.86,83,100,3.44,snow
408,Cognac,FR,45.5,-0.25,28.04,93,75,0.0,broken clouds
409,Bubaque,GW,11.2833,-15.8333,80.29,75,2,6.02,clear sky
410,Awbari,LY,26.5921,12.7805,61.63,51,0,4.54,clear sky
411,Rochester,US,43.1548,-77.6156,34.09,94,100,10.36,light snow
412,Khasan,RU,42.4308,130.6434,33.85,93,100,14.2,snow
413,Morondava,MG,-20.2833,44.2833,77.52,79,98,4.65,overcast clouds
414,Cauquenes,CL,-35.9671,-72.3225,55.53,62,0,6.55,clear sky
415,Bethel,US,41.3712,-73.414,32.9,86,100,1.99,light snow
416,Curuca,BR,-0.7289,-47.8481,74.57,92,43,4.79,scattered clouds
417,Haines Junction,CA,60.7522,-137.5108,-13.05,77,100,0.0,overcast clouds
418,Juba,SS,4.8517,31.5825,76.84,59,16,2.46,few clouds
419,Boa Vista,BR,2.8197,-60.6733,78.78,83,40,4.61,scattered clouds
420,Washington,US,47.5001,-120.5015,33.33,90,96,3.83,overcast clouds
421,Voh,NC,-20.9667,164.7,84.61,66,21,9.44,few clouds
422,Praia Da Vitoria,PT,38.7333,-27.0667,63.75,91,28,33.38,scattered clouds
423,Sechura,PE,-5.5569,-80.8222,69.75,78,87,13.18,overcast clouds
424,Madina,GH,5.6823,-0.1641,79.09,82,19,7.34,few clouds
425,Airai,TL,-8.9266,125.4092,78.6,39,87,0.98,overcast clouds
426,Porto Novo,BJ,6.4965,2.6036,78.21,88,11,4.74,few clouds
427,Aracati,BR,-4.5617,-37.7697,79.61,76,23,12.95,few clouds
428,Sao Miguel Do Araguaia,BR,-13.275,-50.1628,72.81,86,100,3.13,overcast clouds
429,Matara,LK,5.9485,80.5353,75.87,88,100,6.24,overcast clouds
430,Arlit,NE,18.7369,7.3853,67.23,15,100,3.22,overcast clouds
431,Borovoy,RU,55.4333,86.0833,-8.32,77,0,2.24,clear sky
432,Dzialdowo,PL,53.2396,20.17,28.45,92,100,12.44,overcast clouds
433,Padang,ID,-0.9492,100.3543,75.25,85,100,2.64,moderate rain
434,Yeppoon,AU,-23.1333,150.7333,89.38,65,0,10.36,clear sky
435,Sao Filipe,CV,14.8961,-24.4956,77.41,73,0,7.78,clear sky
436,Terrasini,IT,38.146,13.0844,60.22,87,100,6.91,overcast clouds
437,Mnogovershinnyy,RU,53.9353,139.9242,-0.02,72,29,6.02,scattered clouds
438,Fort Wellington,GY,6.4,-57.6,76.93,86,96,7.52,overcast clouds
439,Pacifica,US,37.6138,-122.4869,48.63,91,100,12.66,overcast clouds
440,Presidencia Roque Saenz Pena,AR,-26.7852,-60.4388,78.39,77,93,5.44,overcast clouds
441,Havre-Saint-Pierre,CA,50.2334,-63.5986,9.93,61,27,7.85,scattered clouds
442,Kupang,ID,-10.1667,123.5833,88.38,58,20,4.61,few clouds
443,Maraa,BR,-1.8333,-65.3667,74.32,92,55,0.43,broken clouds
444,Thermi,GR,40.5471,23.0197,56.39,69,0,7.0,clear sky
445,College,US,64.8569,-147.8028,15.21,83,100,1.3,overcast clouds
446,Luba,GQ,3.4568,8.5547,79.48,82,45,7.78,scattered clouds
447,Ust-Nera,RU,64.5667,143.2,-44.91,98,97,5.08,overcast clouds
448,Vincennes,FR,48.85,2.4333,29.86,92,100,6.91,mist
449,Tevriz,RU,57.509,72.4042,3.2,95,100,9.57,light snow
450,Abha,SA,18.2164,42.5053,51.21,73,0,2.91,clear sky
451,Lorengau,PG,-2.0226,147.2712,83.77,72,100,4.23,overcast clouds
452,Vao,NC,-22.6667,167.4833,76.82,70,10,15.05,clear sky
453,Isabela,PH,6.7085,121.9711,84.2,72,100,7.07,overcast clouds
454,Lukaya,UG,-0.1489,31.8748,61.57,91,10,2.15,light rain
455,Fethiye,TR,36.6217,29.1164,66.07,87,100,7.27,overcast clouds
456,Antofagasta,CL,-23.65,-70.4,67.15,79,89,2.3,overcast clouds
457,Sibolga,ID,1.7427,98.7792,76.95,88,100,1.9,overcast clouds
458,Bozova,TR,37.3625,38.5267,47.32,72,100,5.88,light rain
459,Katobu,ID,-4.9408,122.5276,86.79,65,98,1.63,overcast clouds
460,Dali,CN,25.7,100.1833,50.49,46,0,2.26,clear sky
461,Tezu,IN,27.9167,96.1667,66.74,36,0,0.47,clear sky
462,Cervo,ES,43.6702,-7.4101,45.97,83,100,8.16,overcast clouds
463,Banda Aceh,ID,5.5577,95.3222,75.83,86,100,7.96,overcast clouds
464,Santa Cruz Cabralia,BR,-16.2781,-39.0247,77.23,88,20,6.91,few clouds
465,Ballina,AU,-28.8667,153.5667,87.78,65,76,19.01,broken clouds
466,Flin Flon,CA,54.7682,-101.865,24.31,91,100,11.3,overcast clouds
467,Camacha,PT,33.0833,-16.3333,63.82,88,0,1.14,clear sky
468,Ishigaki,JP,24.3448,124.1572,70.25,79,97,19.13,overcast clouds
469,Nikolskoye,RU,59.7035,30.7861,21.09,89,100,13.53,light snow
470,Abu Dhabi,AE,24.4667,54.3667,70.97,57,0,1.01,clear sky
471,Moju,BR,-1.8839,-48.7689,75.6,89,53,3.09,moderate rain
472,Aberfoyle,AU,-30.2667,152.0167,61.32,90,100,12.68,light rain
473,Gourdon,FR,44.75,1.5,27.25,52,80,0.96,broken clouds
474,Jutai,BR,-5.1833,-68.9,73.06,97,100,2.82,overcast clouds
475,Bethanien,NA,-26.502,17.1583,60.85,64,0,6.51,clear sky
476,Jaleswar,NP,26.6471,85.8008,60.87,71,0,0.78,clear sky
477,Mokhsogollokh,RU,61.4681,128.9203,-45.74,97,59,4.68,broken clouds
478,Kostroma,RU,57.7708,40.9344,26.69,95,100,16.31,snow
479,Port Blair,IN,11.6667,92.75,80.87,76,100,6.13,overcast clouds
480,La Macarena,CO,2.1837,-73.7849,69.21,99,94,2.01,overcast clouds
481,Rivadavia,AR,-33.1905,-68.4608,79.95,28,6,18.01,clear sky
482,Porto Santo,PT,33.072,-16.3415,66.58,88,0,1.14,clear sky
483,Binga,ZW,-17.6203,27.3414,73.11,74,28,3.83,scattered clouds
484,Zeya,RU,53.75,127.2667,3.0,95,100,4.27,light snow
485,Shimoda,JP,34.6667,138.95,50.11,60,12,16.24,few clouds
486,Kenai,US,60.5544,-151.2583,25.14,97,100,10.36,snow
487,Phuket,TH,8.0,98.25,84.09,83,20,4.61,few clouds
488,Richards Bay,ZA,-28.783,32.0377,71.42,93,100,1.54,light rain
489,Thibodaux,US,29.7958,-90.8229,67.98,93,1,1.01,clear sky
490,Mhlume,SZ,-26.0333,31.85,68.61,98,100,3.33,overcast clouds
491,Nemuro,JP,43.3236,145.575,30.79,55,97,10.83,overcast clouds
492,Kokopo,PG,-4.352,152.2633,80.4,80,98,4.25,light rain
493,Srivardhan,IN,18.0333,73.0167,77.27,58,97,4.99,overcast clouds
494,Esperance,AU,-33.8667,121.9,62.69,51,1,9.64,clear sky
495,Saint-Leu,RE,-21.15,55.2833,74.32,78,47,2.19,scattered clouds
496,Petropavlovsk-Kamchatskiy,RU,53.0452,158.6483,18.19,68,40,2.24,scattered clouds
497,Valkeakoski,FI,61.2642,24.0312,18.27,90,100,12.03,overcast clouds
498,Anton Lizardo,MX,19.05,-95.9833,74.21,86,2,5.57,clear sky
499,Boyolangu,ID,-8.1181,111.8935,82.11,76,25,5.37,scattered clouds
500,Changde,CN,29.0464,111.6783,43.93,24,0,4.03,clear sky
501,Humaita,BR,-7.5061,-63.0208,73.22,93,69,1.19,broken clouds
502,Atyrau,KZ,47.1167,51.8833,10.42,72,0,15.66,clear sky
503,Esfarayen,IR,37.0765,57.5101,30.92,60,5,2.77,clear sky
504,Eyl,SO,7.9803,49.8164,72.61,75,30,15.28,scattered clouds
505,Shenjiamen,CN,29.9576,122.298,51.91,70,91,16.82,overcast clouds
506,Karlskoga,SE,59.3267,14.5239,16.92,92,30,6.04,scattered clouds
507,Rognan,NO,67.0953,15.3878,23.05,83,4,8.66,clear sky
508,Los Banos,PH,14.1667,121.1833,84.79,73,64,2.42,broken clouds
509,Namatanai,PG,-3.6667,152.4333,85.05,66,99,7.83,overcast clouds
510,Kodinsk,RU,58.6881,99.1844,-18.94,95,100,3.67,overcast clouds
511,Rincon,US,32.296,-81.2354,59.86,80,100,5.75,overcast clouds
512,Ikovka,RU,55.6089,64.9375,19.13,94,100,11.3,snow
513,Miri,MY,4.4148,114.0089,80.17,92,100,2.24,overcast clouds
514,Shingu,JP,33.7333,135.9833,53.19,45,0,5.01,clear sky
515,Lishui,CN,28.4604,119.9103,47.21,68,98,2.55,overcast clouds
516,Pidhorodne,UA,48.5753,35.1068,50.04,80,100,18.14,overcast clouds
517,Dicabisagan,PH,17.0818,122.4157,80.76,72,99,6.17,overcast clouds
518,Dori,BF,14.0354,-0.0345,70.79,14,24,9.89,few clouds
519,Emirdag,TR,39.0197,31.15,46.94,90,100,6.73,overcast clouds
520,Labrea,BR,-7.2586,-64.7981,75.13,92,100,1.34,overcast clouds
521,Belaya Gora,RU,68.5333,146.4167,-15.7,99,100,5.41,overcast clouds
522,Banyo,CM,6.75,11.8167,65.7,36,8,3.2,clear sky
523,Gornopravdinsk,RU,60.05,69.9,0.45,96,100,10.27,snow
524,Port Hedland,AU,-20.3167,118.5667,107.65,10,9,6.91,clear sky
525,Kilindoni,TZ,-7.9139,39.6668,80.08,76,9,7.7,clear sky
526,Mujiayingzi,CN,42.1167,118.7833,19.96,43,2,18.3,clear sky
527,Beyneu,KZ,45.3167,55.2,23.65,81,5,11.56,clear sky
528,Kirando,TZ,-7.4167,30.6,69.58,84,81,5.93,light rain
529,Cururupu,BR,-1.8283,-44.8683,75.51,89,82,2.62,broken clouds
530,Cruzeiro Do Sul,BR,-29.5128,-51.9853,77.52,83,0,1.81,clear sky
531,Cerritos,US,33.8583,-118.0648,55.85,66,0,10.36,clear sky
532,Urengoy,RU,65.9667,78.3667,-21.62,99,81,7.0,broken clouds
533,Charters Towers,AU,-20.1,146.2667,92.12,38,7,9.93,clear sky
534,Ushtobe,KZ,45.2514,77.9838,-0.62,89,4,5.48,clear sky
535,Leshan,CN,29.5623,103.7639,49.37,70,100,3.96,overcast clouds
536,Dubbo,AU,-32.25,148.6167,72.03,53,98,15.01,overcast clouds
537,Maniitsoq,GL,65.4167,-52.9,19.17,56,0,6.38,clear sky
538,Constitucion,CL,-35.3333,-72.4167,56.66,79,0,17.76,clear sky
539,Moa,CU,20.6569,-74.9403,74.86,80,11,9.86,few clouds
540,Seybaplaya,MX,19.65,-90.6667,71.06,77,59,6.11,light rain
541,Mount Isa,AU,-20.7333,139.5,98.37,23,8,9.22,clear sky
542,El Molino,CO,10.6523,-72.924,71.74,93,49,3.89,scattered clouds
543,Huangchuan,CN,32.1272,115.0394,41.31,37,95,7.7,overcast clouds
544,Kamarion,GR,36.8,25.8167,62.1,80,41,24.63,scattered clouds
545,Kutum,SD,14.2,24.6667,55.8,25,5,5.77,clear sky
546,Kirillov,RU,59.863,38.3813,14.63,90,100,13.4,snow
547,Porbandar,IN,21.6422,69.6093,69.6,44,0,11.48,clear sky
548,Pacific Grove,US,36.6177,-121.9166,48.42,88,100,11.99,moderate rain
549,Orsha,BY,54.5153,30.4053,35.2,100,100,13.67,overcast clouds
550,Lincoln,US,40.8,-96.667,30.27,86,75,11.5,broken clouds
551,Kapoeta,SS,4.7717,33.5903,77.88,54,6,10.13,clear sky
552,Nhulunbuy,AU,-12.2333,136.7667,92.01,55,68,11.5,broken clouds
553,Praya,CV,14.9215,-23.5087,73.94,78,0,14.97,clear sky
554,Alpena,US,45.0617,-83.4327,33.12,96,100,4.0,overcast clouds
555,Uitenhage,ZA,-33.7576,25.3971,72.41,90,97,11.74,overcast clouds
556,Tombouctou,ML,20.0,-3.0,70.57,15,0,8.66,clear sky
557,Guozhen,CN,34.3659,107.359,38.34,28,2,1.05,clear sky
558,Mount Gambier,AU,-37.8333,140.7667,58.87,63,64,16.84,light rain
559,Amfiklia,GR,38.6333,22.5833,49.3,75,27,5.39,scattered clouds
560,Ust-Maya,RU,60.4167,134.5333,-40.49,99,90,1.43,overcast clouds
561,Dunedin,NZ,-45.8742,170.5036,56.8,85,40,4.0,scattered clouds
562,Omboue,GA,-1.5746,9.2618,76.33,92,100,5.55,overcast clouds
563,Vuktyl,RU,63.8567,57.3094,-6.57,99,94,1.79,overcast clouds
564,Santa Lucia,ES,27.9117,-15.5407,60.12,88,20,1.14,few clouds
565,Kieta,PG,-6.2167,155.6333,84.58,70,48,3.96,light rain
566,Beausejour,CA,50.0622,-96.5167,30.83,85,100,11.65,overcast clouds
567,Burgeo,CA,47.6167,-57.6152,22.51,65,67,6.96,broken clouds
568,Verkhozim,RU,52.7122,45.418,22.15,66,35,17.4,scattered clouds
569,Guerrero Negro,MX,27.9769,-114.0611,59.97,75,100,10.83,overcast clouds
570,Lavrentiya,RU,65.5833,-171.0,8.2,88,32,13.53,scattered clouds
571,Baiyin,CN,36.5583,104.2081,20.71,46,5,3.69,clear sky
572,Pemangkat,ID,1.1667,108.9667,80.71,78,100,5.35,overcast clouds
573,Narasannapeta,IN,18.4167,84.05,74.19,75,12,4.25,few clouds
574,Port Shepstone,ZA,-30.7414,30.455,72.23,88,100,11.88,light rain
575,Oskarshamn,SE,57.2645,16.4484,25.99,94,100,13.87,snow
576,Sao Borja,BR,-28.6606,-56.0044,79.95,59,25,8.05,scattered clouds
577,Kropotkin,RU,45.4375,40.5756,39.31,77,100,12.68,overcast clouds
578,Sturgis,US,41.7992,-85.4192,37.2,100,100,0.0,overcast clouds
579,Fort-Shevchenko,KZ,44.5086,50.263,28.8,48,0,20.92,clear sky
580,Suntar,RU,62.1444,117.6319,-47.15,99,68,4.34,broken clouds
581,Vredendal,ZA,-31.6683,18.5012,68.23,88,32,8.81,light rain
582,Tateyama,JP,34.9833,139.8667,51.3,52,0,16.06,clear sky
583,Zhanakorgan,KZ,43.9098,67.2495,14.68,74,2,6.42,clear sky
584,Butterworth,MY,5.3991,100.3638,81.0,80,20,4.61,few clouds
585,Gidole,ET,5.65,37.3667,54.32,70,0,2.53,clear sky
586,Aguimes,ES,27.9054,-15.4461,65.03,88,20,1.14,few clouds
587,Suba,PH,10.8438,121.0102,81.1,81,100,11.43,overcast clouds
588,Balkanabat,TM,39.5108,54.3671,33.91,47,0,4.79,clear sky
589,Sloboda,RU,51.1421,40.3021,33.1,88,100,19.42,overcast clouds
590,Luau,AO,-10.7073,22.2247,64.35,97,100,3.49,light rain
591,Korla,CN,41.7597,86.1469,15.6,59,14,3.6,few clouds
592,Caravelas,BR,-17.7125,-39.2481,74.5,91,44,8.01,scattered clouds
593,Puerto Madryn,AR,-42.7692,-65.0385,61.02,55,99,5.17,overcast clouds
594,Tabas,IR,33.5959,56.9244,40.91,39,0,1.03,clear sky
595,General Roca,AR,-39.0333,-67.5833,72.63,33,0,19.46,clear sky
596,Vanimo,PG,-2.6741,141.3028,84.61,69,100,3.09,overcast clouds
597,Pisco,PE,-13.7,-76.2167,68.05,83,0,9.22,clear sky
598,Takoradi,GH,4.8845,-1.7554,78.67,83,83,7.05,broken clouds
599,Port Hardy,CA,50.6996,-127.4199,36.95,79,17,8.72,few clouds
600,Fernley,US,39.608,-119.2518,32.76,57,88,5.01,overcast clouds
601,Margate,GB,51.3813,1.3862,38.7,92,100,7.0,overcast clouds
602,Muisne,EC,0.6,-80.0333,74.84,81,100,6.67,overcast clouds
603,Garowe,SO,8.4054,48.4845,65.28,76,48,7.45,scattered clouds
604,Hualmay,PE,-11.0964,-77.6139,68.7,82,100,5.88,overcast clouds
605,Nola,IT,40.922,14.5329,55.92,69,98,3.85,overcast clouds
606,Pauini,BR,-7.7136,-66.9764,73.71,95,100,2.28,overcast clouds
607,Nouadhibou,MR,20.931,-17.0347,69.58,73,7,14.0,clear sky
608,Latung,PH,5.5,120.8833,82.38,77,96,9.42,overcast clouds
609,Ferrol,ES,43.4832,-8.2369,53.58,78,100,8.48,overcast clouds
610,Hervey Bay,AU,-25.2986,152.8535,78.94,71,1,13.02,clear sky
611,Kemijarvi,FI,66.7131,27.4306,-1.12,99,62,2.26,broken clouds
612,Najran,SA,17.4924,44.1277,52.43,76,0,1.59,clear sky
613,Ciudad Bolivar,VE,8.1222,-63.5497,76.6,80,53,12.03,broken clouds
614,Bushehr,IR,28.9684,50.8385,64.06,52,0,8.75,clear sky
615,Aklavik,CA,68.2191,-135.0107,-18.13,94,16,14.38,few clouds
616,Bousso,TD,10.4795,16.7117,70.63,22,0,6.33,clear sky
617,Columbus,US,39.9612,-82.9988,40.66,88,100,0.0,overcast clouds
618,Moindou,NC,-21.6924,165.677,81.07,68,58,13.73,broken clouds
619,Concepcion Del Oro,MX,24.6333,-101.4167,58.33,29,0,5.93,clear sky
620,Matagami,CA,49.7502,-77.6328,0.19,96,6,3.89,clear sky
621,Isangel,VU,-19.55,169.2667,83.21,70,13,9.86,few clouds
622,Plettenberg Bay,ZA,-34.0527,23.3716,68.05,96,100,5.77,overcast clouds
623,Mahajanga,MG,-15.7167,46.3167,77.02,94,40,3.44,scattered clouds
624,Ketchikan,US,55.3422,-131.6461,30.18,80,0,0.0,clear sky
625,Sanming,CN,26.2486,117.6186,52.02,88,100,3.87,overcast clouds
626,Portel,BR,-1.9356,-50.8211,76.41,84,36,5.3,scattered clouds
627,Ati,TD,13.2154,18.3353,68.13,15,5,9.17,clear sky
628,Porto Belo,BR,-27.1578,-48.5531,76.78,88,60,6.62,broken clouds
629,Kalmar,SE,56.6616,16.3616,26.96,93,100,13.0,overcast clouds
630,Abapo,BO,-18.8333,-63.4667,69.15,79,100,0.85,overcast clouds
631,Calvinia,ZA,-31.4707,19.776,66.43,79,0,6.24,clear sky
632,Marawi,PH,7.9986,124.2928,80.22,67,98,1.59,overcast clouds
633,La Crosse,US,43.8014,-91.2396,35.53,75,100,3.44,overcast clouds
634,Sale,MA,34.0389,-6.8166,68.76,100,100,14.97,moderate rain
635,Ambilobe,MG,-13.2,49.05,72.81,85,3,3.09,clear sky
636,Gulu,UG,2.7746,32.299,64.36,85,25,1.7,light rain
637,Hami,CN,42.8,93.45,17.28,39,3,4.41,clear sky
638,Tamasopo,MX,21.9333,-99.4833,58.75,95,57,1.92,broken clouds
639,Marinette,US,45.1,-87.6307,32.49,68,100,7.25,overcast clouds
640,Valdosta,US,30.8327,-83.2785,59.04,92,40,4.61,scattered clouds
641,Fomboni,KM,-12.28,43.7425,81.46,77,6,12.57,clear sky
642,Kirov,RU,58.5966,49.6601,18.54,95,100,5.44,light snow
643,Saint-Augustin,CA,51.226,-58.6502,6.78,76,98,7.43,overcast clouds
644,Mikhaylovka,RU,50.06,43.2379,30.78,70,12,19.33,few clouds
645,Coahuayana,MX,18.7333,-103.6833,72.32,88,0,1.19,clear sky
646,Worland,US,44.0169,-107.9554,40.35,81,0,3.0,clear sky
647,Kennebunk,US,43.384,-70.5448,24.4,75,100,8.05,overcast clouds
648,Omsukchan,RU,62.5333,155.8,-29.2,97,100,3.87,overcast clouds
649,Guymon,US,36.6828,-101.4816,51.8,54,0,17.27,clear sky
650,Surgut,RU,61.25,73.4167,-20.02,76,40,6.71,mist
651,Bud,US,39.447,-86.1758,41.02,81,27,5.28,scattered clouds
652,Evensk,RU,61.95,159.2333,-4.83,87,100,6.91,overcast clouds
653,Almaznyy,RU,48.0448,40.045,34.59,92,100,21.16,overcast clouds
654,Corralillo,CU,22.9819,-80.5856,72.12,67,0,8.03,clear sky
655,Antigonish,CA,45.6169,-61.9986,26.15,78,100,3.0,overcast clouds
656,Bonavista,CA,48.6499,-53.1147,27.09,73,99,14.12,overcast clouds
657,Falun,SE,60.6036,15.626,11.95,92,72,3.94,broken clouds
658,Sao Joao Nepomuceno,BR,-21.54,-43.0106,74.59,98,99,1.97,overcast clouds
659,Jennings,US,38.7192,-90.2604,38.01,83,100,8.05,overcast clouds
660,Quang Ngai,VN,15.1167,108.8,69.53,91,100,7.63,overcast clouds
661,Chichawatni,PK,30.5333,72.7,57.58,37,0,4.29,clear sky
662,Osmena,PH,10.5208,119.9258,81.0,80,100,12.28,overcast clouds
663,Ziro,IN,27.6333,93.8333,39.94,66,1,1.88,clear sky
664,San Quintin,MX,30.4833,-115.95,59.97,79,90,7.65,overcast clouds
665,Hirtshals,DK,57.5881,9.9592,27.59,77,89,15.66,overcast clouds
666,Sainte-Anne-Des-Monts,CA,49.124,-66.4924,15.93,67,53,1.45,broken clouds
667,Lata,PT,40.1629,-8.3327,59.81,97,100,4.34,overcast clouds
668,Ahipara,NZ,-35.1667,173.1667,69.82,64,3,7.05,clear sky
669,Santa Isabel Do Rio Negro,BR,-0.4139,-65.0192,75.69,87,18,2.44,few clouds
670,Finschhafen,PG,-6.6024,147.8681,84.06,70,100,4.27,light rain
671,Tuusula,FI,60.4037,25.0264,21.74,82,100,17.27,overcast clouds
672,Iqaluit,CA,63.7506,-68.5145,6.53,77,100,2.3,light snow
673,Pangoa,PE,-12.1167,-73.0,68.34,99,100,2.24,overcast clouds
674,Nakasongola,UG,1.3089,32.4564,63.45,96,80,2.57,light rain
675,Otavi,NA,-19.65,17.3333,65.3,19,66,8.57,broken clouds
676,Marsa Matruh,EG,31.3525,27.2453,64.83,57,54,10.76,broken clouds
677,Escuinapa,MX,22.85,-105.8,68.27,80,0,3.02,clear sky
678,Ikom,NG,5.9667,8.7063,71.67,85,7,0.94,clear sky
679,Idrinskoye,RU,54.3708,92.1358,-11.18,97,14,3.0,few clouds
680,Itarema,BR,-2.9248,-39.9167,79.5,79,59,14.38,broken clouds
681,Davila,PH,18.4726,120.5763,82.38,71,82,9.4,broken clouds
682,Chirongui,YT,-12.9319,45.1483,80.53,76,4,12.26,clear sky
683,Camopi,GF,3.1655,-52.3158,70.61,99,99,2.1,overcast clouds
684,Inhambane,MZ,-23.865,35.3833,76.35,87,95,7.11,overcast clouds
685,Phalia,PK,32.4297,73.5775,53.4,38,0,2.91,clear sky
686,Zhigalovo,RU,54.8097,105.1578,-15.02,88,100,9.01,overcast clouds
687,Daru,PG,-9.0763,143.2092,83.82,76,100,4.45,light rain
688,Mwandiga,TZ,-4.83,29.6581,70.11,84,100,3.76,light rain
689,Kolondieba,ML,11.0882,-6.8926,70.5,17,100,5.39,overcast clouds
690,Coper,CO,5.4768,-74.0442,66.18,98,98,4.52,overcast clouds
691,Wainwright,CA,52.839,-110.8572,5.72,96,100,9.82,overcast clouds
692,Sola,VU,-13.8833,167.55,80.71,68,83,1.7,broken clouds
693,Qasigiannguit,GL,68.8193,-51.1922,16.05,72,41,5.14,scattered clouds
694,Sangar,RU,63.9242,127.4739,-31.31,97,100,1.97,overcast clouds
695,Repnoye,RU,51.5921,43.1861,27.95,79,85,20.11,overcast clouds
696,Bulungu,CD,-4.55,18.6,68.99,98,99,2.01,light rain
697,Blenheim,NZ,-41.516,173.9528,74.52,60,8,7.0,clear sky
698,Zhigansk,RU,66.7697,123.3711,-25.35,97,100,11.56,overcast clouds
699,Chapais,CA,49.7834,-74.8492,-0.56,93,5,4.36,clear sky
700,Ixtapa,MX,20.7,-105.2,76.23,83,40,4.61,scattered clouds
701,Skegness,GB,53.1436,0.3363,35.06,76,100,7.29,overcast clouds
702,Ternate,ID,0.8,127.4,81.55,77,100,3.51,overcast clouds
703,Nassau,US,40.7507,-73.5829,38.7,85,100,8.05,light rain
704,Anloga,GH,5.7947,0.8973,80.55,85,36,13.13,scattered clouds
705,Hays,US,30.0502,-98.0336,61.29,85,100,6.31,overcast clouds
706,Ngunguru,NZ,-35.6167,174.5,67.68,66,41,10.13,scattered clouds
707,Mocuba,MZ,-16.8392,36.9856,71.06,95,0,2.48,clear sky
708,Duluth,US,46.7833,-92.1066,35.29,94,100,6.91,overcast clouds
709,Amurzet,RU,47.6967,131.0981,9.93,89,100,9.86,overcast clouds
710,Seydisehir,TR,37.4193,31.8453,45.43,91,100,3.56,moderate rain
711,La Reforma,MX,25.0833,-108.05,67.53,66,1,7.29,clear sky
712,Alice,US,27.7523,-98.0697,72.97,88,100,8.05,overcast clouds
713,Kirakira,SB,-10.4544,161.9205,83.61,73,98,5.73,overcast clouds
714,Sorland,NO,67.667,12.6934,31.86,56,6,12.12,clear sky
715,Durazno,UY,-33.4131,-56.5006,73.33,68,93,6.51,overcast clouds
716,Manokwari,ID,-0.8667,134.0833,78.33,84,100,5.66,heavy intensity rain
717,Novopetrovskoye,RU,55.9928,36.4719,36.3,99,100,13.44,light rain
718,Jiexiu,CN,37.0244,111.9125,27.66,18,0,13.38,clear sky
719,Mayo,US,38.8876,-76.5119,43.12,92,0,5.75,mist
720,Sretensk,RU,52.2453,117.7093,4.62,80,100,7.81,overcast clouds
721,Bose,IT,45.4612,8.0137,31.77,61,24,4.0,few clouds
722,Maarianhamina,AX,60.0973,19.9348,26.46,86,100,10.36,overcast clouds
723,Murgab,TM,37.4966,61.9714,30.9,58,100,6.26,overcast clouds
724,Seidu,SL,9.0167,-10.6,67.55,34,100,0.58,overcast clouds
725,Kailua,US,21.4022,-157.7394,78.78,78,100,5.01,overcast clouds
726,Cody,US,44.5263,-109.0565,33.64,74,0,4.61,clear sky
727,Chara,RU,56.9064,118.2631,-8.77,83,100,6.08,overcast clouds
728,Leh,IN,34.1667,77.5833,14.54,50,47,1.16,scattered clouds
729,Vilhena,BR,-12.7406,-60.1458,67.82,94,100,2.35,overcast clouds
730,Ballitoville,ZA,-29.539,31.2144,73.17,89,100,3.51,overcast clouds
731,Okato,NZ,-39.2,173.8833,67.68,65,10,6.69,clear sky
732,Santa Cruz De Tenerife,ES,28.4682,-16.2546,77.29,72,0,1.99,clear sky
733,Baghdad,IQ,33.3406,44.4009,46.31,100,100,2.3,mist
734,Upala,CR,10.8979,-85.0145,76.15,92,85,4.36,overcast clouds
735,Noumea,NC,-22.2763,166.4572,85.98,66,11,15.01,few clouds
736,Mtimbira,TZ,-8.7833,36.35,71.35,97,100,1.79,light rain
737,Singaraja,ID,-8.112,115.0882,85.19,67,56,3.31,broken clouds
738,Kumluca,TR,36.3703,30.2869,60.55,87,100,6.8,light rain
739,Pinyug,RU,60.251,47.7842,10.89,91,100,4.5,light snow
740,Montlucon,FR,46.3333,2.6,21.7,95,3,4.38,clear sky
741,Bereda,ES,43.2686,-7.5406,46.42,99,100,2.17,overcast clouds
742,Hammond,US,41.5834,-87.5,39.49,75,100,0.0,overcast clouds
743,Grand Gaube,MU,-20.0064,57.6608,76.37,70,0,5.01,clear sky
744,Nabire,ID,-3.3667,135.4833,75.4,96,100,2.28,overcast clouds
745,Waipawa,NZ,-41.4122,175.5153,70.27,48,6,6.11,clear sky
746,Okiot,PH,9.5667,123.1667,87.91,74,100,0.67,overcast clouds
747,Kavaratti,IN,10.5669,72.642,81.63,69,74,17.05,broken clouds
