,City,Country,Max Temp,Decription,Lat,Lng,Hotel Name
0,Kapaa,US,80.58,light rain,22.0752,-159.319,Pono Kai Resort
3,Mogadishu,SO,77.99,scattered clouds,2.0371,45.3438,SYL Hotel
4,Georgetown,MY,80.53,few clouds,5.4112,100.3354,Page 63 hostel
5,Tual,ID,77.67,overcast clouds,-5.6667,132.75,Suita
8,Brownsville,US,74.08,broken clouds,25.9018,-97.4975,Cameron Hotel
9,Jamestown,US,34.02,mist,42.097,-79.2353,DoubleTree Jamestown
13,Talcahuano,CL,62.28,clear sky,-36.7167,-73.1167,Club Recreativo Armada de Chile
15,Kota Kinabalu,MY,84.18,few clouds,5.9749,116.0724,Hotel Cititel Express
19,Hilo,US,80.33,overcast clouds,19.7297,-155.09,Dolphin Bay Hotel
20,Punta Arenas,CL,51.91,light intensity shower rain,-53.15,-70.9167,Hotel Lacolet
21,Paita,PE,68.7,overcast clouds,-5.0892,-81.1144,Victor's
22,Lagoa,PT,62.42,clear sky,39.05,-27.9833,Casa da Madrinha
23,New Norfolk,AU,62.92,overcast clouds,-42.7826,147.0587,Woodbridge on the Derwent
24,Rikitea,PF,76.39,light rain,-23.1203,-134.9692,Chez Bianca & Benoit
25,Scarborough,GB,27.97,few clouds,54.2797,-0.4044,The Victoria Hotel
27,Cape Town,ZA,75.11,scattered clouds,-33.9258,18.4232,Townhouse Hotel
31,Wad Madani,SD,71.96,clear sky,14.4012,33.5199,Allneel hotel
32,Ponta Delgada,PT,66.92,moderate rain,37.7333,-25.6667,Hotel Talisman
33,Saint-Philippe,RE,72.99,scattered clouds,-21.3585,55.7679,Le Baril
34,Avarua,CK,78.85,broken clouds,-21.2078,-159.775,Paradise Inn
35,Necochea,AR,58.68,clear sky,-38.5473,-58.7368,Cabañas Río Quequén
37,Puerto Carreno,CO,76.37,few clouds,6.189,-67.4859,Carreño Plaza
38,Bengkulu,ID,80.38,overcast clouds,-3.8004,102.2655,Dena Hotel
39,Ushuaia,AR,44.26,broken clouds,-54.8,-68.3,Apart Hotel Aires del Beagle
41,Veraval,IN,69.8,clear sky,20.9,70.3667,Shyam
44,Yenagoa,NG,76.75,few clouds,4.9247,6.2642,Peretimi Hotels Ltd.
47,Pierre,US,36.52,clear sky,44.3683,-100.351,Quality Inn
48,Vila Velha,BR,80.55,clear sky,-20.3297,-40.2925,Hotel Prainha
50,Juliaca,PE,48.09,light rain,-15.5,-70.1333,Hotel San Martin Inn
51,Hobart,AU,63.27,broken clouds,-42.8794,147.3294,The Old Woolstore Apartment Motel
53,Hamilton,US,42.94,overcast clouds,39.1834,-84.5333,North Vista Manor
54,Chiredzi,ZW,71.08,scattered clouds,-21.05,31.6667,Nesbitt Arms Hotel
55,Cidreira,BR,72.86,clear sky,-30.1811,-50.2056,Hotel Castelo
56,Victoria,HK,63.25,overcast clouds,22.2855,114.1577,四季酒店 Four Seasons Hotel
57,Oxapampa,PE,57.88,overcast clouds,-10.5775,-75.4017,Yanachaga
58,Rio Grande,BR,74.08,clear sky,-32.035,-52.0986,Hotel Vila Moura Executivo
59,Muros,ES,54.09,overcast clouds,42.7762,-9.0603,Pensión Ría de Muros
62,Kloulklubed,PW,83.75,overcast clouds,7.0419,134.2556,The Adventures Inn
64,Tarata,BO,60.22,overcast clouds,-17.6167,-66.0167,Centro Alternativo Tara Tara
66,Hasaki,JP,52.29,clear sky,35.7333,140.8333,Choshi Plaza Hotel
70,Biltine,TD,67.55,clear sky,14.5333,20.9167,فندق ثلاث نجوم بلتن
72,Mar Del Plata,AR,64.09,scattered clouds,-38.0023,-57.5575,Nuevo Ostende
73,Clonakilty,IE,27.61,clear sky,51.6231,-8.8706,Imperial Hotel
75,Soyo,AO,75.78,overcast clouds,-6.1349,12.3689,Hotel Maria Teres
79,Buchanan,LR,77.81,few clouds,5.8808,-10.0467,Phillipmena's Guesthouse
80,Sinnamary,GF,76.71,overcast clouds,5.3833,-52.95,Hôtel du fleuve
82,Hofn,IS,32.56,clear sky,64.2539,-15.2082,Guesthouse Dyngja
85,Inongo,CD,70.18,light rain,-1.95,18.2667,Chez LELE IYOLO
86,Saint-Pierre,RE,74.91,few clouds,-21.3393,55.4781,Tropic Hotel
87,Tahoua,NE,67.23,overcast clouds,14.8888,5.2692,Hotel Bungalow
88,Andenes,NO,24.93,clear sky,69.3143,16.1194,Andrikken hotell
89,Hithadhoo,MV,80.89,overcast clouds,-0.6,73.0833,Pebbles Inn
90,Saint Anthony,US,33.42,broken clouds,45.0205,-93.218,Delta Hotels by Marriott
91,Mango,US,67.08,scattered clouds,27.9797,-82.3065,Hilton Garden Inn Tampa East/Brandon
92,Bom Jesus,BR,75.38,scattered clouds,-9.0744,-44.3586,Hotel Brasão
93,Hermanus,ZA,70.81,light rain,-34.4187,19.2345,Aloe guest house
96,Nishihara,JP,69.46,broken clouds,26.1842,127.7558,ユインチホテル南城
97,Lethem,GY,76.24,overcast clouds,3.3803,-59.7968,Hotel Amazonas
101,Naze,JP,63.52,scattered clouds,28.3667,129.4833,ビジネス旅館畠山
105,Kralendijk,BQ,78.78,scattered clouds,12.15,-68.2667,Hotel Bonaire Inn
106,Linfen,CN,35.42,clear sky,36.0889,111.5189,7天连锁酒店
107,Severo-Kurilsk,RU,25.32,light snow,50.6789,156.125,"""Дом рыбака"""
110,Santa Maria,BR,74.5,clear sky,-29.6842,-53.8069,Hotel Morotin
112,Roma,US,34.09,mist,43.2128,-75.4557,Wingate by Wyndham Rome
113,Alice Springs,AU,74.75,clear sky,-23.7,133.8833,Aurora Alice Springs
114,San Cristobal,VE,68.18,broken clouds,7.7669,-72.225,Terra Sur
115,Bathsheba,BB,75.06,few clouds,13.2167,-59.5167,Atlantis Hotel
118,Saint-Paul,RE,75.36,scattered clouds,-21.0096,55.2707,Hôtel d'application
119,Baker City,US,34.59,overcast clouds,44.7749,-117.8344,Geiser Grand Hotel
122,Olafsvik,IS,35.51,clear sky,64.8945,-23.7142,North Star Hotel Snæfellsnes
123,Paris,FR,30.07,mist,48.8534,2.3488,Hôtel Esmerelda
124,Castro,BR,65.61,overcast clouds,-24.7911,-50.0119,Hotel Central Palace
125,Atuona,PF,78.42,few clouds,-9.8,-139.0333,Pearl Resort
126,Cap Malheureux,MU,76.46,clear sky,-19.9842,57.6142,Cape Garden
128,Thompson,CA,28.56,overcast clouds,55.7435,-97.8558,Thompson Inn
129,Port Elizabeth,ZA,73.09,few clouds,-33.918,25.5701,Waterford Hotel
130,Rawson,AR,58.57,overcast clouds,-43.3002,-65.1023,Hotel Deportivo
131,Chuy,UY,73.38,overcast clouds,-33.6971,-53.4616,Alerces
133,Puerto Ayora,EC,69.55,broken clouds,-0.7393,-90.3518,Hostal La Mirada De Solitario George
137,Bandiagara,ML,69.98,clear sky,14.3501,-3.6104,Hôtel Auberge Kansaye
138,San Vicente,AR,65.35,overcast clouds,-26.6167,-54.1333,Los Lapachos
140,Tuku,TW,69.3,broken clouds,23.6778,120.3926,雲林商旅
141,North Bend,US,44.51,scattered clouds,43.4065,-124.2243,The Mill Casino Hotel
142,Christchurch,NZ,70.48,few clouds,-43.5333,172.6333,Ibis Hotel Christchurch
143,Vestmannaeyjar,IS,34.45,clear sky,63.4427,-20.2734,Hotel Vestmannaeyjar
145,Souillac,MU,75.58,few clouds,-20.5167,57.5167,Hotel SkylineInn
150,Sabha,LY,61.88,clear sky,27.0377,14.4283,فندق الكاظم-سبها
154,Siteki,SZ,77.0,light rain,-26.45,31.95,Siteki hotel
155,Bredasdorp,ZA,68.38,light rain,-34.5322,20.0403,Victoria Hotel
156,Brigantine,US,44.8,overcast clouds,39.4101,-74.3646,The Sea Gull
159,Vaini,TO,78.96,light intensity drizzle,-21.2,-175.2,Keleti International Resort
161,San Fernando,PH,83.93,overcast clouds,15.0286,120.6898,Pampanga Lodge and Restaurant
162,Jumla,NP,42.06,clear sky,29.2747,82.1838,Amar Sandesh Guesthouse
163,Juazeiro Do Norte,BR,80.56,clear sky,-7.2131,-39.3153,Panorama Hotel
164,Sao Joao Da Barra,BR,74.97,clear sky,-21.6403,-41.0511,Pousada Mediterrâneo
166,Progreso,MX,78.12,light rain,21.2833,-89.6667,Centro Vacacional Obrero CTM
170,Marataizes,BR,74.44,clear sky,-21.0433,-40.8244,Saveiros Palace Hotel
171,Salalah,OM,68.9,clear sky,17.0151,54.0924,Muscat International Hotel
172,Queanbeyan,AU,62.19,broken clouds,-35.35,149.2333,Tourist Hotel
173,Westport,US,38.32,snow,41.1415,-73.3579,Norwalk Inn and Conference Center
178,Fereydun Kenar,IR,44.82,clear sky,36.6864,52.5225,هتل کیش مهر
179,Craig,US,29.82,overcast clouds,40.5153,-107.5464,Quality Inn & Suites
180,Pochutla,MX,77.83,clear sky,15.7432,-96.4661,Hotel El Patio
183,Ponta Do Sol,PT,73.0,broken clouds,32.6667,-17.1,Estalagem Ponta do Sol
184,Klaksvik,FO,32.92,light snow,62.2266,-6.589,Hotel Klaksvik
187,Santa Clara,CU,64.81,clear sky,22.4,-79.9667,Casa Marilin & Familia
189,Kangaba,ML,69.67,overcast clouds,11.9333,-8.4167,Hôtel Mande
191,Mahebourg,MU,76.24,few clouds,-20.4081,57.7,Grand Bel Air
195,Katsuura,JP,52.29,clear sky,35.1333,140.3,潮騒の宿
196,Tomball,US,66.81,overcast clouds,30.0972,-95.6161,La Quinta Inn & Suites by Wyndham Tomball
199,Lakes Entrance,AU,57.16,light rain,-37.8811,147.981,Banjo Patterson Motor Inn
200,Elizabeth City,US,52.02,broken clouds,36.2946,-76.2511,Quality Inn
201,Quatre Cocos,MU,76.08,clear sky,-20.2078,57.7625,Horisun
204,Basco,PH,77.74,overcast clouds,20.4487,121.9702,Tawsen Hotel
206,Casper,US,37.38,overcast clouds,42.8666,-106.3131,Days Inn by Wyndham Casper
209,Khorramshahr,IR,53.56,clear sky,30.4397,48.1664,بيت صباح التميمي
210,Coquimbo,CL,64.13,clear sky,-29.9533,-71.3436,Hotel Iberia
212,Nyaunglebin,MM,75.94,few clouds,17.95,96.7333,စန်းဋ္ဌေး
213,Yulara,AU,82.18,clear sky,-25.2406,130.9889,Outback Pioneer Hotel & Lodge
215,Camiri,BO,71.55,overcast clouds,-20.05,-63.5167,Sol Chaqueño
217,Oistins,BB,74.52,few clouds,13.0667,-59.5333,The Abidah By Accra
218,Kavieng,PG,84.61,overcast clouds,-2.5744,150.7967,Kavieng Hotel
220,Te Anau,NZ,69.84,broken clouds,-45.4167,167.7167,Lakeside Motels & Apartments
225,Byron Bay,AU,87.94,overcast clouds,-28.65,153.6167,Lord Byron Resort
227,Quevedo,EC,80.4,overcast clouds,-1.0333,-79.45,"Hotel Chifa ""JADE"""
230,Gorontalo,ID,87.85,overcast clouds,0.5412,123.0595,Grand City Hotel
231,Lompoc,US,49.89,clear sky,34.6391,-120.4579,Embassy Suites by Hilton Lompoc Central Coast
235,Saint George,US,48.79,overcast clouds,37.1041,-113.5841,"The Advenire, an Autograph Collection Hotel"
236,Salta,AR,81.19,clear sky,-24.7859,-65.4117,Ayres de Salta Hotel
238,Eureka,US,44.92,scattered clouds,40.8021,-124.1637,"Eureka Inn, Trademark Collection by Wyndham"
241,Seoul,KR,36.97,clear sky,37.5683,126.9778,뉴국제호텔
242,Touros,BR,78.53,clear sky,-5.1989,-35.4608,Pousada Atlântico
243,Piacabucu,BR,77.02,broken clouds,-10.4056,-36.4344,O Leão
244,Fortuna,US,44.65,scattered clouds,40.5982,-124.1573,Comfort Inn & Suites Redwood Country
245,Kodiak,US,38.21,light rain,57.79,-152.4072,Shelikof Lodge
248,Lujiang,CN,40.8,overcast clouds,31.2581,117.2817,锦怡晓厨
250,Puerres,CO,47.5,light rain,1.1937,-77.2666,hollywood
252,Half Moon Bay,US,48.78,overcast clouds,37.4636,-122.4286,Half Moon Bay Inn
255,Faanui,PF,74.08,moderate rain,-16.4833,-151.75,Oa Oa Lodge
259,Calama,CL,59.49,broken clouds,-22.4667,-68.9333,Apart Hotel Geotel Calama
265,Orchard Homes,US,33.94,mist,46.8633,-114.0484,Broadway Inn
266,Lhokseumawe,ID,74.07,overcast clouds,5.1801,97.1507,Vina Vira Hotel
270,Cayenne,GF,73.44,clear sky,4.9333,-52.3333,Central Hôtel
274,Banjar,ID,86.4,scattered clouds,-8.19,114.9675,Villa Banjar Beach
275,Inirida,CO,72.41,overcast clouds,3.8653,-67.9239,Residencias El Turista del Guainia
276,Sulina,RO,49.37,overcast clouds,45.1559,29.6536,Casa Coral
277,Manavgat,TR,60.06,moderate rain,36.7867,31.4431,Hotel Sazak
278,Kendari,ID,85.93,overcast clouds,-3.945,122.4989,Hotel Agung
280,Sohag,EG,55.69,overcast clouds,26.557,31.6948,Al Safa Hotel
282,Saldanha,ZA,71.65,scattered clouds,-33.0117,17.9442,Hoedjesbaai
283,Port Pirie,AU,65.55,few clouds,-33.1833,138.0167,Ellen Hotel
284,Nakusp,CA,34.47,overcast clouds,50.2499,-117.8023,Leland Hotel
289,Port Macquarie,AU,77.9,light rain,-31.4333,152.9167,The Observatory
297,Orange,US,55.53,broken clouds,33.7,-117.7675,La Quinta Inn & Suites
298,Kostrzyn,PL,30.97,overcast clouds,52.3985,17.2281,Pałac Iwno
302,Chatham,GB,33.8,light snow,51.3789,0.5279,The Charles Hotel
303,Sitka,US,29.14,overcast clouds,57.0531,-135.33,Aspen Suites Hotel
306,Los Aquijes,PE,69.93,overcast clouds,-14.0967,-75.6908,El Embrujo
307,Presidente Franco,PY,77.52,scattered clouds,-25.5333,-54.6167,Tia Nancy
308,Reconquista,AR,83.05,clear sky,-29.15,-59.65,Hotel San Martin
317,Sarahan,IN,40.19,scattered clouds,31.5167,77.8,OYO 329
320,Nouakchott,MR,77.29,clear sky,18.0858,-15.9785,فندق أدرار
321,Olinda,BR,80.33,scattered clouds,-8.0089,-34.8553,Fidji Motel
323,Pokhara,NP,59.2,clear sky,28.2333,83.9833,Hotel Annapurna View Sarangkot
324,Bodo,NO,22.95,clear sky,67.28,14.405,Zefyr hotell
325,Kankan,GN,71.1,overcast clouds,10.3854,-9.3057,Buffet de la gare
327,Laguna,US,50.05,light rain,38.421,-121.4238,Holiday Inn Express & Suites
329,Dalbandin,PK,49.59,overcast clouds,28.8947,64.4101,SF Al-dawood Restaurant
337,Sur,OM,73.63,clear sky,22.5667,59.5289,Sur Hotel
339,Shwebo,MM,68.13,clear sky,22.5667,95.7,Pyi Shwe Theingha
341,Ziparion,GR,63.52,scattered clouds,36.875,27.2042,Villa Xenos
343,Hambantota,LK,68.34,few clouds,6.1241,81.1185,Oasis Aurweda Resort Hambathota
347,Tocopilla,CL,69.33,overcast clouds,-22.092,-70.1979,hotel Isidora
348,Jalu,LY,59.65,clear sky,29.0331,21.5482,فندق جالو السياحي
350,Ko Samui,TH,80.51,scattered clouds,9.5357,99.9357,Nathon Residence
351,La Romana,DO,73.76,scattered clouds,18.4273,-68.9728,Hotel Frano
352,Marsh Harbour,BS,75.36,clear sky,26.5412,-77.0636,Lofty Fig Villas
353,Portland,US,44.89,overcast clouds,45.5234,-122.6762,the Hoxton
354,Alghero,IT,46.49,broken clouds,40.5589,8.3181,Catalunya
357,Saint-Georges,GD,74.88,few clouds,12.0564,-61.7485,Deyna's City Inn
362,Bukama,CD,68.0,light rain,-9.2,25.85,Mission catholique
363,Campbell River,CA,38.73,broken clouds,50.0163,-125.2446,Comfort Inn & Suites
364,Maku,IR,30.81,overcast clouds,39.2911,44.4521,آسیان هتل ماکو
365,Mardin,TR,44.11,overcast clouds,37.3131,40.7436,Erdoba Evleri Babil Konağı
366,Grajau,BR,73.0,few clouds,-5.8194,-46.1386,Torre Palace Hotel
368,Tanggu,CN,35.56,clear sky,39.0211,117.6469,汉庭酒店
371,Ancud,CL,52.32,light rain,-41.8697,-73.8203,Cabañas
372,Atar,MR,75.16,clear sky,20.5169,-13.0499,فندق سكليل
373,Beni,CD,60.51,light rain,0.5,29.4667,Logement Alco-Family
376,Los Llanos De Aridane,ES,67.12,clear sky,28.6585,-17.9182,Valle Aridane
377,Vangaindrano,MG,71.76,few clouds,-23.35,47.6,Fanilo
378,Sambava,MG,73.76,light rain,-14.2667,50.1667,Royal Sava Hôtel
380,San Andres,CO,78.82,few clouds,12.5847,-81.7006,Hotel Decameron Isleño
382,Cockburn Town,TC,76.96,overcast clouds,21.4612,-71.1419,The Salt Raker Inn
387,Viamao,BR,75.67,clear sky,-30.0811,-51.0233,Hotel Itália
389,Yvetot,FR,33.13,overcast clouds,49.6174,0.7581,L'ÔH
391,Mushie,CD,71.28,overcast clouds,-3.0167,16.9,hôtel Mushi
392,Kawalu,ID,80.4,scattered clouds,-7.3817,108.2082,Hotel Surya
396,Plover,US,32.99,overcast clouds,44.4564,-89.544,Hampton
397,Along,IN,58.66,clear sky,28.1667,94.7667,Hotel Toshi Palace
401,Gerash,IR,37.54,clear sky,27.6652,54.1371,هتل آبشار
405,Kahului,US,78.96,overcast clouds,20.8947,-156.47,Maui Seaside Hotel
406,Cabo San Lucas,MX,74.52,clear sky,22.8909,-109.9124,Comfort Rooms
409,Bubaque,GW,80.29,clear sky,11.2833,-15.8333,Chez Julio
410,Awbari,LY,61.63,clear sky,26.5921,12.7805,فندق اوباري
411,Rochester,US,34.09,light snow,43.1548,-77.6156,Holiday Inn Rochester Downtown
412,Khasan,RU,33.85,snow,42.4308,130.6434,生态度假酒店
413,Morondava,MG,77.52,overcast clouds,-20.2833,44.2833,Hotel Sharon Menabe
414,Cauquenes,CL,55.53,clear sky,-35.9671,-72.3225,Hotel Maule
415,Bethel,US,32.9,light snow,41.3712,-73.414,Hampton Inn Danbury
418,Juba,SS,76.84,few clouds,4.8517,31.5825,Hotel Juba Regency
419,Boa Vista,BR,78.78,scattered clouds,2.8197,-60.6733,Aipana Plaza Hotel
420,Washington,US,33.33,overcast clouds,47.5001,-120.5015,Cashmere's Village Inn
421,Voh,NC,84.61,few clouds,-20.9667,164.7,Le Vook
422,Praia Da Vitoria,PT,63.75,scattered clouds,38.7333,-27.0667,Salles
423,Sechura,PE,69.75,overcast clouds,-5.5569,-80.8222,Hospedaje Claritza
424,Madina,GH,79.09,few clouds,5.6823,-0.1641,Ritz Hotel
426,Porto Novo,BJ,78.21,few clouds,6.4965,2.6036,Hôtel 6500 CFA
427,Aracati,BR,79.61,few clouds,-4.5617,-37.7697,Hotel Complexo Mirante das Gamboas
428,Sao Miguel Do Araguaia,BR,72.81,overcast clouds,-13.275,-50.1628,Hotel São Miguel
429,Matara,LK,75.87,overcast clouds,5.9485,80.5353,Villa Palm Breeze
432,Dzialdowo,PL,28.45,overcast clouds,53.2396,20.17,Varia
433,Padang,ID,75.25,moderate rain,-0.9492,100.3543,losmen Surya
435,Sao Filipe,CV,77.41,clear sky,14.8961,-24.4956,Bela Vista
436,Terrasini,IT,60.22,overcast clouds,38.146,13.0844,Palm Beach Hotel
439,Pacifica,US,48.63,overcast clouds,37.6138,-122.4869,Holiday Inn Express & Suites Pacifica
440,Presidencia Roque Saenz Pena,AR,78.39,overcast clouds,-26.7852,-60.4388,Hotel Presidente
442,Kupang,ID,88.38,few clouds,-10.1667,123.5833,BIB & LANG GUEST HOUSE
444,Thermi,GR,56.39,clear sky,40.5471,23.0197,Avalon Hotel Thessaloniki
446,Luba,GQ,79.48,scattered clouds,3.4568,8.5547,Hotel Jones
448,Vincennes,FR,29.86,mist,48.85,2.4333,Le Home
450,Abha,SA,51.21,clear sky,18.2164,42.5053,SAHAB
451,Lorengau,PG,83.77,overcast clouds,-2.0226,147.2712,Seeadler Bay Hotel
452,Vao,NC,76.82,clear sky,-22.6667,167.4833,Nataiwatch
456,Antofagasta,CL,67.15,overcast clouds,-23.65,-70.4,Hotel Colón
457,Sibolga,ID,76.95,overcast clouds,1.7427,98.7792,Hotel Prima Indah
460,Dali,CN,50.49,clear sky,25.7,100.1833,风花雪月大酒店
462,Cervo,ES,45.97,overcast clouds,43.6702,-7.4101,Hotel Spa Galatea
463,Banda Aceh,ID,75.83,overcast clouds,5.5577,95.3222,Hotel 61
464,Santa Cruz Cabralia,BR,77.23,few clouds,-16.2781,-39.0247,Campo Bahia Resort
465,Ballina,AU,87.78,broken clouds,-28.8667,153.5667,Ballina Beach Resort
466,Flin Flon,CA,24.31,overcast clouds,54.7682,-101.865,Copperbelt Hotel
467,Camacha,PT,63.82,clear sky,33.0833,-16.3333,Praia Dourada
468,Ishigaki,JP,70.25,overcast clouds,24.3448,124.1572,アートホテル石垣島
470,Abu Dhabi,AE,70.97,clear sky,24.4667,54.3667,Marriott Downtown Abu-Dhabi
476,Jaleswar,NP,60.87,clear sky,26.6471,85.8008,Bajeko Satuwa
478,Kostroma,RU,26.69,snow,57.7708,40.9344,Островский
479,Port Blair,IN,80.87,overcast clouds,11.6667,92.75,Andaman Ocean Breeze
480,La Macarena,CO,69.21,overcast clouds,2.1837,-73.7849,Muñoz
481,Rivadavia,AR,79.95,clear sky,-33.1905,-68.4608,Hotel Pasambay
482,Porto Santo,PT,66.58,clear sky,33.072,-16.3415,Praia Dourada
483,Binga,ZW,73.11,scattered clouds,-17.6203,27.3414,Lake View Inn
485,Shimoda,JP,50.11,few clouds,34.6667,138.95,ホテルウラガ
486,Kenai,US,25.14,snow,60.5544,-151.2583,Beluga Lookout Hotel
487,Phuket,TH,84.09,few clouds,8.0,98.25,Amanpuri
488,Richards Bay,ZA,71.42,light rain,-28.783,32.0377,Protea Hotel
489,Thibodaux,US,67.98,clear sky,29.7958,-90.8229,Days Inn & Suites Bayou Land
491,Nemuro,JP,30.79,overcast clouds,43.3236,145.575,イーストハーバーホテル
492,Kokopo,PG,80.4,light rain,-4.352,152.2633,Hotel Kokopo
494,Esperance,AU,62.69,clear sky,-33.8667,121.9,Best Western
495,Saint-Leu,RE,74.32,scattered clouds,-21.15,55.2833,Iloha Seaview Hôtel
498,Anton Lizardo,MX,74.21,clear sky,19.05,-95.9833,Hotel CocoAventura
500,Changde,CN,43.93,clear sky,29.0464,111.6783,Sheraton Changde Wuling Hotel
501,Humaita,BR,73.22,broken clouds,-7.5061,-63.0208,Humaita Quality Hotel
503,Esfarayen,IR,30.92,clear sky,37.0765,57.5101,هتل ساریگل
504,Eyl,SO,72.61,scattered clouds,7.9803,49.8164,فندق ايل دابي
505,Shenjiamen,CN,51.91,overcast clouds,29.9576,122.298,Zhonghan Hotel
507,Rognan,NO,23.05,clear sky,67.0953,15.3878,Rognan hotell
508,Los Banos,PH,84.79,broken clouds,14.1667,121.1833,Palmridge Private Resort
509,Namatanai,PG,85.05,overcast clouds,-3.6667,152.4333,Namatanai Hotel
513,Miri,MY,80.17,overcast clouds,4.4148,114.0089,Kenyalang Suites Miri
514,Shingu,JP,53.19,clear sky,33.7333,135.9833,ホテルニューパレス
515,Lishui,CN,47.21,overcast clouds,28.4604,119.9103,丽水华侨开元名都大酒店
518,Dori,BF,70.79,few clouds,14.0354,-0.0345,Kuin Deni Dori
525,Kilindoni,TZ,80.08,clear sky,-7.9139,39.6668,Ibizza Inn
527,Beyneu,KZ,23.65,clear sky,45.3167,55.2,Johan yu
528,Kirando,TZ,69.58,light rain,-7.4167,30.6,Lakeshore Lodge
530,Cruzeiro Do Sul,BR,77.52,clear sky,-29.5128,-51.9853,Estrela Palace Hotel
531,Cerritos,US,55.85,clear sky,33.8583,-118.0648,Sheraton
535,Leshan,CN,49.37,overcast clouds,29.5623,103.7639,Jinye Express Hotel
536,Dubbo,AU,72.03,overcast clouds,-32.25,148.6167,Ibis Budget
538,Constitucion,CL,56.66,clear sky,-35.3333,-72.4167,Hostal Alameda
539,Moa,CU,74.86,few clouds,20.6569,-74.9403,Hotel Miraflores
544,Kamarion,GR,62.1,scattered clouds,36.8,25.8167,Eleni
547,Porbandar,IN,69.6,clear sky,21.6422,69.6093,Toran Tourist Bungalow
548,Pacific Grove,US,48.42,moderate rain,36.6177,-121.9166,Pacific Grove Inn
549,Orsha,BY,35.2,overcast clouds,54.5153,30.4053,Общежитие «Оршанского педагогического колледжа»
550,Lincoln,US,30.27,broken clouds,40.8,-96.667,New Victorian Suites Lincoln
551,Kapoeta,SS,77.88,clear sky,4.7717,33.5903,Kuleu
553,Praya,CV,73.94,clear sky,14.9215,-23.5087,Casa Sodadi
554,Alpena,US,33.12,overcast clouds,45.0617,-83.4327,Ramada of Alpena
555,Uitenhage,ZA,72.41,overcast clouds,-33.7576,25.3971,Old Central Hotel
558,Mount Gambier,AU,58.87,light rain,-37.8333,140.7667,The Old Mount Gambier Gaol
559,Amfiklia,GR,49.3,scattered clouds,38.6333,22.5833,Kyriaki Hotel & Studio
561,Dunedin,NZ,56.8,scattered clouds,-45.8742,170.5036,Scenic Hotel Dunedin City
562,Omboue,GA,76.33,overcast clouds,-1.5746,9.2618,Georges Faustin Aurat
564,Santa Lucia,ES,60.12,few clouds,27.9117,-15.5407,Hotel Rural Molino de Aqua
569,Guerrero Negro,MX,59.97,overcast clouds,27.9769,-114.0611,Plaza sal paraiso
572,Pemangkat,ID,80.71,overcast clouds,1.1667,108.9667,Hotel Kelapa Gading
574,Port Shepstone,ZA,72.23,light rain,-30.7414,30.455,The Spot Backpackers'
575,Oskarshamn,SE,25.99,snow,57.2645,16.4484,Clarion Collection Hotel Post
576,Sao Borja,BR,79.95,scattered clouds,-28.6606,-56.0044,Hotel Obino
577,Kropotkin,RU,39.31,overcast clouds,45.4375,40.5756,Европа
578,Sturgis,US,37.2,overcast clouds,41.7992,-85.4192,Travelodge by Wyndham Sturgis
579,Fort-Shevchenko,KZ,28.8,clear sky,44.5086,50.263,Akku
586,Aguimes,ES,65.03,few clouds,27.9054,-15.4461,Hotel Villa de Agüimes
587,Suba,PH,81.1,overcast clouds,10.8438,121.0102,Jade Felimar Value Inn
588,Balkanabat,TM,33.91,clear sky,39.5108,54.3671,Nebitçi
592,Caravelas,BR,74.5,scattered clouds,-17.7125,-39.2481,Pousada dos Navegantes
593,Puerto Madryn,AR,61.02,overcast clouds,-42.7692,-65.0385,Hotel Gran Palace
594,Tabas,IR,40.91,clear sky,33.5959,56.9244,هتل امیر
595,General Roca,AR,72.63,clear sky,-39.0333,-67.5833,Hotel Austral
596,Vanimo,PG,84.61,overcast clouds,-2.6741,141.3028,CBC Guesthouse
597,Pisco,PE,68.05,clear sky,-13.7,-76.2167,La Portada
598,Takoradi,GH,78.67,broken clouds,4.8845,-1.7554,Hillcrest
600,Fernley,US,32.76,overcast clouds,39.608,-119.2518,Best Western Fernley Inn
601,Margate,GB,38.7,overcast clouds,51.3813,1.3862,The Reading Rooms
602,Muisne,EC,74.84,overcast clouds,0.6,-80.0333,Hostal Té de Menta
603,Garowe,SO,65.28,scattered clouds,8.4054,48.4845,Red Sea
604,Hualmay,PE,68.7,overcast clouds,-11.0964,-77.6139,Hotel Mi Choacan
605,Nola,IT,55.92,overcast clouds,40.922,14.5329,Pamaran
607,Nouadhibou,MR,69.58,clear sky,20.931,-17.0347,Hotel valencia
609,Ferrol,ES,53.58,overcast clouds,43.4832,-8.2369,Hotel El Suizo
610,Hervey Bay,AU,78.94,clear sky,-25.2986,152.8535,Hervey Bay Hotel
613,Ciudad Bolivar,VE,76.6,broken clouds,8.1222,-63.5497,Paoca
614,Bushehr,IR,64.06,clear sky,28.9684,50.8385,هتل رستوران سیراف
617,Columbus,US,40.66,overcast clouds,39.9612,-82.9988,Sheraton Columbus Hotel at Capitol Square
621,Isangel,VU,83.21,few clouds,-19.55,169.2667,Tanna Lodge
622,Plettenberg Bay,ZA,68.05,overcast clouds,-34.0527,23.3716,Milkwood Manor
623,Mahajanga,MG,77.02,scattered clouds,-15.7167,46.3167,Vahiny Hotel
624,Ketchikan,US,30.18,clear sky,55.3422,-131.6461,Cape Fox Lodge
625,Sanming,CN,52.02,overcast clouds,26.2486,117.6186,三明客家宾馆
628,Porto Belo,BR,76.78,broken clouds,-27.1578,-48.5531,Residencial Maravilha
629,Kalmar,SE,26.96,overcast clouds,56.6616,16.3616,Frimurarehotellet
632,Marawi,PH,80.22,overcast clouds,7.9986,124.2928,Marawi Resort Hotel
633,La Crosse,US,35.53,overcast clouds,43.8014,-91.2396,Bentley-Wheeler Bed and Breakfast
634,Sale,MA,68.76,moderate rain,34.0389,-6.8166,Le dawliz
635,Ambilobe,MG,72.81,clear sky,-13.2,49.05,Hôtel National
639,Marinette,US,32.49,overcast clouds,45.1,-87.6307,Best Western Riverfront Inn
640,Valdosta,US,59.04,scattered clouds,30.8327,-83.2785,Comfort Inn & Suites
641,Fomboni,KM,81.46,clear sky,-12.28,43.7425,Mohéli La Plage
644,Mikhaylovka,RU,30.78,few clouds,50.06,43.2379,Дружба
646,Worland,US,40.35,clear sky,44.0169,-107.9554,Town House Motor Inn
649,Guymon,US,51.8,clear sky,36.6828,-101.4816,Comfort Inn & Suites
655,Antigonish,CA,26.15,overcast clouds,45.6169,-61.9986,Microtel Hotel
656,Bonavista,CA,27.09,overcast clouds,48.6499,-53.1147,Harbour Quarters Inn
658,Sao Joao Nepomuceno,BR,74.59,overcast clouds,-21.54,-43.0106,Hotel Central
659,Jennings,US,38.01,overcast clouds,38.7192,-90.2604,Carousel Motel
660,Quang Ngai,VN,69.53,overcast clouds,15.1167,108.8,Ngoc Anh
664,San Quintin,MX,59.97,overcast clouds,30.4833,-115.95,Jardines Hotel
665,Hirtshals,DK,27.59,overcast clouds,57.5881,9.9592,Hotel Hirtshals
668,Ahipara,NZ,69.82,clear sky,-35.1667,173.1667,YHA Ahipara
669,Santa Isabel Do Rio Negro,BR,75.69,few clouds,-0.4139,-65.0192,Hotel Maikon
676,Marsa Matruh,EG,64.83,broken clouds,31.3525,27.2453,صقور
677,Escuinapa,MX,68.27,clear sky,22.85,-105.8,Hotel Iq
678,Ikom,NG,71.67,clear sky,5.9667,8.7063,Gold Palm Hotels
680,Itarema,BR,79.5,broken clouds,-2.9248,-39.9167,Pousada Oásis
681,Davila,PH,82.38,broken clouds,18.4726,120.5763,Blue Ridge Beach Resort
683,Camopi,GF,70.61,overcast clouds,3.1655,-52.3158,Chez Lucia
684,Inhambane,MZ,76.35,overcast clouds,-23.865,35.3833,Hotel de Inhambane
687,Daru,PG,83.82,light rain,-9.0763,143.2092,Kuki
688,Mwandiga,TZ,70.11,light rain,-4.83,29.6581,Mulukoyoyo Ndogo Guesthouse
695,Repnoye,RU,27.95,overcast clouds,51.5921,43.1861,Ресторанно-гостиничный комплекс «Козырь»
697,Blenheim,NZ,74.52,clear sky,-41.516,173.9528,Chateau Marlborough
701,Skegness,GB,35.06,overcast clouds,53.1436,0.3363,The Cedars
702,Ternate,ID,81.55,overcast clouds,0.8,127.4,Boulivard ternate
703,Nassau,US,38.7,light rain,40.7507,-73.5829,Hilton Garden Inn
704,Anloga,GH,80.55,scattered clouds,5.7947,0.8973,Hotel de White House
706,Ngunguru,NZ,67.68,scattered clouds,-35.6167,174.5,Oceans Tutukaka
708,Duluth,US,35.29,overcast clouds,46.7833,-92.1066,Radisson Hotel Duluth-Harborview
710,Seydisehir,TR,45.43,moderate rain,37.4193,31.8453,sey-han hotel
714,Sorland,NO,31.86,clear sky,67.667,12.6934,Fagmek Resorts
716,Manokwari,ID,78.33,heavy intensity rain,-0.8667,134.0833,Hotel Arfak
718,Jiexiu,CN,27.66,clear sky,37.0244,111.9125,友谊宾馆
721,Bose,IT,31.77,few clouds,45.4612,8.0137,Hotel Ristorante Taverna Verde
722,Maarianhamina,AX,26.46,overcast clouds,60.0973,19.9348,Hotell Esplanad
726,Cody,US,33.64,clear sky,44.5263,-109.0565,Comfort Inn At Buffalo Bill Village Resort
730,Ballitoville,ZA,73.17,overcast clouds,-29.539,31.2144,The Vineyard On Ballito
731,Okato,NZ,67.68,clear sky,-39.2,173.8833,Stony River Boutique Hotel
732,Santa Cruz De Tenerife,ES,77.29,clear sky,28.4682,-16.2546,Hotel Príncipe Paz
733,Baghdad,IQ,46.31,mist,33.3406,44.4009,AL Bedaa Hotel
734,Upala,CR,76.15,overcast clouds,10.8979,-85.0145,Hotel Rosita
735,Noumea,NC,85.98,few clouds,-22.2763,166.4572,Hotel Gondwana
737,Singaraja,ID,85.19,broken clouds,-8.112,115.0882,Hotel Sentral
742,Hammond,US,39.49,overcast clouds,41.5834,-87.5,Fairfield Inn & Suites by Marriott Chicago Southeast/Hammond
743,Grand Gaube,MU,76.37,clear sky,-20.0064,57.6608,Coco Villa
744,Nabire,ID,75.4,overcast clouds,-3.3667,135.4833,Hotel Anggrek
746,Okiot,PH,87.91,overcast clouds,9.5667,123.1667,Seaside Homestay
